[{ "name": "府前廣場地下停車場", "address": "松壽路1號地下", "summary": "為地下二層停車場，計有2024個小型車停車格，1137個機車停車位", "tel": "2723-0000", "payex": "計時:30元(9-18)，夜間10元(18-9)，機車計次20元(當日當次，隔日另計)。月票:全日3,400元，所在里3,000元，日間2,400元(7-19)，夜間1,000元(週一至週五19-8時及假日)，機車300元。市府員工月票:全日2,900元，日間2,400元(7-22)，機車150元。本場提供計程車免費一小時服務。", "available": "1038", "longitude": "121.562997", "latitude": "25.036089" },
    { "name": "松壽廣場地下停車場", "address": "松智路75號地下", "summary": "立體式小型車446格(含身心障礙停車位9格)。", "tel": "2722-8080", "payex": "計時：週一至週五(09-22)30元/時，(22-09)10元/時，假日(09-22)40元/時，(22-09)10元，全程半小時計費。月票：全日3,400元，日間(07-20)2,400元，夜間優惠(限週一至週五19-08及假日使用)1,000元。", "available": "427", "longitude": "121.56628", "latitude": "25.037147" },
    { "name": "臺北市災害應變中心地下停車場", "address": "莊敬路391巷11弄2號地下", "summary": "立體式小型車169格(含身心障礙停車位5格)。立體式機車208格(含身心障礙停車位5格)。", "tel": "2345-3859", "payex": "小型車計時30元(全程以半小時)。全日月票5,000元，日間(07-19)月票2,600元，所在里民優惠(三張里)月票3,500，停車場出入口周邊服務半徑300公尺範圍內設籍里民(景新里、三犁里、景勤里、雙和里、惠安里)月票4,000元。機車暫不收費。本場提供計程車免費一小時服務。", "available": "N/A", "longitude": "121.566226", "latitude": "25.028806" },
    { "name": "雅祥公園地下停車場", "address": "松隆路123巷7號地下", "summary": "立體式小型車204格(含身心障礙停車位5格)。", "tel": "2765-5716", "payex": "週一至週四計時40元，週五至週日及政府行政機關放假之紀念日與民俗日計時50元(全程以半小時計費)。月租：全日4,800元，夜間2,000元(週一至週五19-8及假日)，所在里(雅祥里)優惠3,360元，300公尺鄰近里優惠3,840元。本場提供計程車免費一小時服務。", "available": "25", "longitude": "121.57187", "latitude": "25.047444" },
    { "name": "台北世界貿易中心展覽三館停車場", "address": "松壽路6號", "summary": "計有665格小型車格，527格機車格。", "tel": "2725-5200#2803", "payex": "小型車：50元/時，停車未滿1小時以1小時計，逾1小時以上者，未滿半小時以半小時計。月租：小型車5,000元/月；機車500元/月。計次：機車40元/次，每隔1夜停放，加計1次收費。", "available": "440", "longitude": "121.564502", "latitude": "25.035327" },
    { "name": "台北君悅大飯店停車場", "address": "松壽路2號B1、B2", "summary": "計有390個小型車停車位。", "tel": "02-2720-1005", "payex": "70元/時，停車逾1小時以上者，未滿半小時以半小時計費。6300元/月，34020元/半年，60480元/年。", "available": "311", "longitude": "121.562613", "latitude": "25.035703" },
    { "name": "臺北世界貿易中心展覽大樓停車場", "address": "信義路5段5號B1", "summary": "為地下停車場，341格小型車", "tel": "2725-5200#2688", "payex": "(08-22時)100元/時，(22-08時)40元/時，停車未滿1小時以1小時計，逾1小時以上者，未滿半小時以半小時計費。月租：固定車位6,800元/月，24小時無固定車位5,000元/月，日間時段(07-22時)無固定車位(含貿協同仁)4,200元/月，夜間時段(19-翌日08時)2,200元/月", "available": "225", "longitude": "121.562327", "latitude": "25.033335" },
    { "name": "台北世界貿易中心國際貿易大樓地下停車場", "address": "基隆路1段333號B1~B3", "summary": "為立體停車場，計有418個小型車停車位。", "tel": "2757-6834", "payex": "100元/時，停車未滿1小時以1小時計費，逾1小時以上者，未滿半小時以半小時計費。每月固定車位：6300元/月（僅限大樓租戶）", "available": "N/A", "longitude": "121.56113", "latitude": "25.034315" },
    { "name": "台北國際會議中心停車場", "address": "信義路五段1號", "summary": "計有18個大型車停車位，483個小型車停車位。", "tel": " ", "payex": "50元/小時,續每半小時25元", "available": "229", "longitude": "121.560865", "latitude": "25.033318" },
    { "name": "威秀A17停車場", "address": "松壽路20號B1、B2", "summary": "立體式小型車105格(含身心障礙停車位2格)、立體式機車格157格(含身心障礙停車位3格)", "tel": "02-8780-5566#323", "payex": "計時：小型車50元/時，機車20元/時，停車未滿半小時以半小時計。月租：小型車全日4,600元/月，半日3,700元/月，機車月租1,000元/月。", "available": "N/A", "longitude": "121.56722", "latitude": "25.035373" },
    { "name": "威秀A16停車場", "address": "松壽路18號B1", "summary": "為立體停車場，計有100個機車格，74個小型車格", "tel": "8780-5566#323", "payex": "計時：小型車50元/時，機車20元/時，停車未滿半小時以半小時計。月租：小型車全日4,600元/月，半日3,700元/月，機車月租1,000元/月。", "available": "N/A", "longitude": "121.566639", "latitude": "25.035363" },
    { "name": "興雅國中地下停車場", "address": "松德路200巷18號地下", "summary": "立體式小型車447格(含身心障礙停車位9格)。", "tel": "2758-5499", "payex": "計時30元，(全程以半小時計費)。月票4,800元，日間月票3,000元(7-19)，夜間月票2,400元(19-8)，所在里(信義區安康里)優惠3,360元，停車場出入口周邊半徑300公尺鄰近里(信義區松友里三犁里)優惠3,840元。本場提供計程車免費一小時服務。", "available": "147", "longitude": "121.57281", "latitude": "25.034906" },
    { "name": "松山高中地下停車場", "address": "基隆路1段156號地下", "summary": "立體式小型車228格(含身心障礙停車位5格)。", "tel": "2768-5492", "payex": "週一至週五(8-20)計時30元，(20-8)計時10元，假日(8-9、19-20)計時30元，(9-19)計時60元，(20-8)計時10元(全程以半小時計費)。月租：全日優惠5,760元，(新仁里、興雅里、敦厚里)里民全日優惠4,600元。本場提供計程車免費一小時服務。", "available": "95", "longitude": "121.564074", "latitude": "25.044076" },
    { "name": "忠信地下停車場", "address": "松仁路2號地下", "summary": "立體式小型車314格(含身心障礙停車位7格)。立體式機車255格(含身心障礙停車位5格)。", "tel": "2345-9578", "payex": "每小時40元，(全程以半小時計費)，月票：全日5,200元，日間(07-19)3,600元，夜間(19-08)2,880元，所在里(興雅里)優惠3,640元，半徑300公尺鄰近里(西村里、廣居里、安康里、富台里、敦厚里、六藝里)優惠4,160元機車計次20元，全日月票300元。本場提供計程車免費一小時服務。", "available": "69", "longitude": "121.567783", "latitude": "25.040419" },
    { "name": "台北101停車場", "address": "市府路45號B2~B4", "summary": "計有1263個小型車格，2990機車格", "tel": "8101-8293", "payex": "計時：小型車平日70元/時，假日100元/時，機車20元/時，停車未滿1小時以1小時計，逾1小時以上者，未滿半小時以半小時計費。月租：小型車10,000元/月。", "available": "815", "longitude": "121.56373", "latitude": "25.033735" },
    { "name": "遠企中心地下停車場", "address": "敦化南路2段207號B4、B5", "summary": "為地下停車場，計有425個小型車停車位。", "tel": "2736-3033", "payex": "計時：100元/時，5分鐘以內免費，全程以半小時計費。", "available": "N/A", "longitude": "121.549255", "latitude": "25.026007" },
    { "name": "信義廣場地下停車場", "address": "信義路5段11號地下", "summary": "立體式小型車372格(含身心障礙停車位8格)。立體式機車233格(含身心障礙停車位3格)。", "tel": "8780-0133", "payex": "計時：週一至週五(22-8)計時10元，(8-22)計時30元，假日(22-8)計時10元，(8-22)計時40元；機車計次20元(每日零時清場)。月票：全日優惠月票3,500元，所在里3,360元，日間月票3,000元(7-20)，夜間月票500元(21-8)，機車300元/月。本場提供計程車免費一小時服務。", "available": "306", "longitude": "121.565811", "latitude": "25.033146" },
    { "name": "北寧路地下停車場", "address": "八德路3段25號地下1層及地下2層", "summary": "為地下停車場，計有78個小型車", "tel": "0936-959-539", "payex": "(99.1.1委外)40元/時(9-21)，30元/時(21-09)(以半小時計費)，停車時數逾半小時以上，其超過之不滿1小時部份，以1小時計算。夜間2000元/月(平常日：18-9，星期六、日及政府行政機關放假之紀念日全日均可使用)。", "available": "44", "longitude": "121.552416", "latitude": "25.048721" },
    { "name": "市民大道(敦延段)", "address": "敦化南路-延吉街(地下)", "summary": "立體式小型車217格(含身心障礙停車位5格)。", "tel": "2577-4364", "payex": "計時：週一週五：(8-22)30元，(22-8)10元，週六至週日：(8-18)30元，(18-23)40元，(23-08)10元，全程以半小時計費。月租：全日6,500，日間(7-19)3,600元，夜間(19-8)3,000元。本場提供計程車免費一小時服務。", "available": "90", "longitude": "121.550609", "latitude": "25.044666" },
    { "name": "市民大道(延吉段)", "address": "延吉街兩側(地下)", "summary": "立體式小型車79格(含身心障礙停車位2格)。", "tel": "2579-3244", "payex": "計時：週日至週四：(8-12)30元，(12-23)40元，(23-08)10元，週五至週六：(8-12)40元，(12-23)50元，(23-08)10元，全程以半小時計費。月租：全日6,500，日間(7-19)3,600元，夜間(19-8)3,000元。本場提供計程車免費一小時服務。", "available": "29", "longitude": "121.553575", "latitude": "25.044367" },
    { "name": "偶戲博物館地下停車場", "address": "市民大道5段99號(地下一層)", "summary": "為立體、地下停車場，計有69個小型車停車位。45個機車停車位", "tel": "0937-276-666", "payex": "計時：周一至周五30元/時，周六至周日及政府行政機關放假之紀念日及民俗節計時40元/時，全程以半小時計費。月租：全日5,400元，里民優惠(吉祥里、新仁里)4,200元，所在里(復盛里)3,675元，機車免費。", "available": "11", "longitude": "121.562061", "latitude": "25.047283" },
    { "name": "中崙高中地下停車場", "address": "八德路4段101號地下", "summary": "立體式小型車347格(含身心障礙停車位7格)。", "tel": "2528-4969", "payex": "計時：週一至週五30元/時，假日40元/時，全程以半小時計費。月租：全日5,200元，日間(7-19)4,400元，夜間(19-8)2,400元。本場提供計程車免費一小時服務。", "available": "N/A", "longitude": "121.561162", "latitude": "25.050013" },
    { "name": "僑安地下停車場", "address": "忠孝東路4段306號地下", "summary": "立體式小型車422格(含身心障礙停車位10格)。", "tel": "2711-5547", "payex": "計時：40元/時，夜間30元(22-8)，全程半小時計費。月租：全日7,200元/月，日間4,200元/月(8-20)，夜間3,600元/月(20-8)。本場提供計程車免費一小時服務。", "available": "275", "longitude": "121.556664", "latitude": "25.040999" },
    { "name": "三張里地下停車場", "address": "松平路81號地下", "summary": "立體式小型車356格(含身心障礙停車位8格)。立體式機車220格(含身心障礙停車位4格)。", "tel": "2758-9690", "payex": "計時30元(全程以半小時計費)。全日優惠月票5,000元，月票：日間2,600元(7-19)，夜間2,600元(19-8)，所在里(三張里)優惠3,500元，半徑300公尺臨近里(景新里、西村里、安康里、三犁里)優惠4,000元，機車月票300元，機車計次20元。本場提供計程車免費一小時服務。", "available": "39", "longitude": "121.566748", "latitude": "25.030915" },
    { "name": "春光公園地下停車場", "address": "忠孝東路5段666號地下", "summary": "立體式小型車213格(含身心障礙停車位5格)。立體式機車68格(含身心障礙停車位3格)。", "tel": "2726-8210", "payex": "計時30元(8-20)，夜間計時10元(20-8)(全程以半小時計費)。月票：全日6,000元，日間3,600元(7-19)，夜間3,600元(19-8)，所在里(松光里)優惠4,200，停車場出入口周邊服務半徑300公尺內里民優惠4,800元，機車計次20元，機車月票300元。本場提供計程車免費一小時服務。", "available": "34", "longitude": "121.580699", "latitude": "25.042242" },
    { "name": "信義國小地下停車場", "address": "信義區松勤街60號地下", "summary": "立體式小型車231格(含身心障礙停車位5格)。立體式機車50格(含身心障礙停車位1格)。", "tel": "2758-8124", "payex": "小型車每小時30元(全程以半小時計費)，全日月票5,000元，所在里民優惠(景新里)月票3,500元，停車場出入周邊半徑300公尺里民優惠(景勤里、景聯里、三張里、西村里)4,000元。本場提供計程車免費一小時服務。", "available": "77", "longitude": "121.563227", "latitude": "25.03137" },
    { "name": "市府轉運站停車場", "address": "忠孝東路5段6號B1、B2、B4、B5", "summary": "為地下立體停車場，計有595個機車格，473格小型車", "tel": "2722-1166#8507", "payex": "臨停：汽車平日計時40元，假日計時60元，機車平日計時10元，最高30元，假日計時20元，最高60元，停車未滿1小時以1小時計，逾1小時以上者未滿半小時以半小時計。月租：汽車7,000元，日間(08-20)6,000元，夜間(20-08)4,000元，機車600元。", "available": "N/A", "longitude": "121.565163", "latitude": "25.040668" },
    { "name": "BELLAVITA寶麗廣場停車場", "address": "松仁路28號地下1、2、4、5樓", "summary": "為立體地下停車場，計有168個小型車格，243個機車格。", "tel": "8729-2828", "payex": "小型車120元/時，機車60元/時，停車未滿1小時以1小時計，逾1小時以上者，未滿半小時以半小時計。", "available": "N/A", "longitude": "121.567917", "latitude": "25.03973" },
    { "name": "京華城停車場", "address": "八德路4段138號地下B5~B8", "summary": "立體式小型車1457格(含身心障礙停車位30格)。", "tel": "3762-1688#77400", "payex": "計時：40元/時，進場未滿15分鐘可免費出場，停車未滿1小時以1小時計，逾1小時以上者，未滿半小時以半小時計。月租：全日6,000元，日間3,000，夜間僅限里民1,200元。", "available": "N/A", "longitude": "121.562493", "latitude": "25.048546" },
    { "name": "松山工農地下停車場", "address": "忠孝東路5段236巷15號地下", "summary": "立體式小型車239格(含身心障礙停車位5格)。立體式機車189格(含身心障礙停車位4格)。", "tel": "2759-0666", "payex": "周一至周五計時30元，假日計時40元(全程以半小時計費)，月票：全日5,200元，停車場所在里(廣居里及安康里6鄰)里民全日優惠3,640元，停車場出入口周圍服務半徑300公尺內(富台里、興雅里、安康里及國業里)里民全日優惠4,160元。本場提供計程車免費一小時服務。", "available": "40", "longitude": "121.572294", "latitude": "25.039581" },
    { "name": "ATT 4 FUN停車場", "address": "松壽路12號地下2樓", "summary": "", "tel": "8780-8111", "payex": "小型車、機車每小時50元，停車未滿1小時以1小時計，逾1小時以上者，未滿半小時以半小時計。", "available": "N/A", "longitude": "121.566053", "latitude": "25.035671" },
    { "name": "臺北文創停車場", "address": "光復南路89巷88號", "summary": "", "tel": "2523-5000#132", "payex": "汽車計時80元/時，機車計時10元/時，停車未滿1小時以1小時計，逾1小時以上者，未滿半小時以半小時計。汽車月租：全天8000元/月，機車月租：全天800元/月。機車計次：一日30元/次。", "available": "N/A", "longitude": "121.561928", "latitude": "25.044659" },
    { "name": "嘉興公園地下停車場", "address": "嘉興街373號", "summary": "立體式小型車195格(含身心障礙停車位4格)。立體式機車64格(含身心障礙停車位2格)。", "tel": "8732-1451", "payex": "小型車計時：30元/時，全程以半小時計費。小型車月租：全日4,800元/月。機車計次：20元/次。機車月租：300元/月。本場提供計程車免費一小時服務。", "available": "27", "longitude": "121.552044", "latitude": "25.021464" },
    { "name": "應安168延吉停車場", "address": "延吉街246巷10號B1、B2", "summary": "為立體地下停車場，計有30個小型車格，94格機車", "tel": "2325-2595", "payex": "小型車60元/時，停車逾1小時以上者，未滿半小時以半小時計費。14,400元/月，機車60元/次，1,800元/月。里民全日優惠八折，所在里里民全日優惠七折。", "available": "N/A", "longitude": "121.555316", "latitude": "25.035242" },
    { "name": "吳興街220巷平面停車場", "address": "吳興街220巷75號對面", "summary": "為平面停車場，計有96個小型車格", "tel": "04-2263-5866", "payex": "計時30元/時，全程以半小時計費。全日月票7,200元/月，里民優惠全日3,840元/月(景勤里、景聯里、黎順里、雙和里及嘉興里)。", "available": "74", "longitude": "121.560411", "latitude": "25.02565" },
    { "name": "吳興街220巷(一)平面停車場", "address": "吳興街220巷內(於臺北醫學院對面)", "summary": "為平面停車場，計有138個小型車格", "tel": "0980-115-897", "payex": "計時30元(計時收費全程以半小時計費)。全日月票7,200元，全日里民優惠月票3,840元。", "available": "27", "longitude": "121.561686", "latitude": "25.027369" },
    { "name": "吳興街220巷(二)平面停車場", "address": "吳興街220巷鄰信安街(414平面)", "summary": "為平面停車場，計有167個小型車格", "tel": "04-2263-5866", "payex": "計時30元/時，全程以半小時計費。全日月票7,200元/月，里民優惠全日3,840元/月(信義區景勤里、景聯里、黎順里、雙和里、嘉興里、黎平里及黎中里)。", "available": "N/A", "longitude": "121.558519", "latitude": "25.026157" },
    { "name": "便利停車場大安地政事務所站", "address": "信義路4段335巷6號B1~B3", "summary": "為平面停車場，計有70個小型車，157個機車格", "tel": "2799-1001#155", "payex": "計時：80元/時，洽公民眾30分內免費；全程以半小時計費。月租：全日7,000元；日間(08-20)5,000元；員工1,000元。機車10元/次。", "available": "N/A", "longitude": "121.556507", "latitude": "25.033742" },
    { "name": "台灣聯通福安停車場", "address": "仁愛路4段258號", "summary": "塔台，計56個小型停車格", "tel": "2523-5000", "payex": "100元/時，停車逾1小時以上者，未滿半小時以半小時計費。全日12,000元/月，日間11,000元(08~20)/月，夜間10,000元(20~08)/月", "available": "31", "longitude": "121.553123", "latitude": "25.037335" },
    { "name": "臺灣聯通敦南停車場", "address": "敦化南路2段206號", "summary": "計有60個小型停車格", "tel": "2523-5000", "payex": "60元/時，停車逾1小時以上者，未滿半小時以半小時計。月租：全天8000元/月，日間7000元(08~20)/月，夜間6000元/月。", "available": "41", "longitude": "121.548347", "latitude": "25.022598" },
    { "name": "台灣聯通敦化場停車場", "address": "市民大道4段136號", "summary": "  ", "tel": "2523-5000", "payex": "80元/時，停車未滿1小時以1小時計，逾1小時以上者，未滿半小時以半小時計費。全日8,000元/月，日間(08-20)：7,000元/月，夜間(20-08)：6,000元/月。", "available": "4", "longitude": "121.551541", "latitude": "25.04427" },
    { "name": "四維路成功市場臨時攤棚", "address": "敦化南路2段112號旁", "summary": "為平面停車場，計有57個小型停車格", "tel": " ", "payex": "(100.2.1委外)計時40元。全日月票9,600元，全日里民優惠月票7,680元(群英、臥龍、虎嘯、全安、義安、龍雲里)，所在里里民優惠6720元/月(群賢里)。", "available": "27", "longitude": "121.54838", "latitude": "25.026823" },
    { "name": "台灣聯通監理站停車場", "address": "八德路4段32號", "summary": "計有80個小型車格", "tel": "2523-5000", "payex": "80元/時，停車未滿1小時以1小時計，逾1小時以上者，未滿半小時以半小時計費。全日8000元/月，日間7000元(08~20)/月，夜間6000元(20~08)/月。", "available": "37", "longitude": "121.55898", "latitude": "25.048173" },
    { "name": "台灣聯通基隆路停車場", "address": "信義路4段468號", "summary": "為機械停車場，計有58個小型車格(含身心障礙停車位1格)", "tel": "2523-5000", "payex": "60元/時，停車未滿1小時以1小時計，逾1小時以上者，未滿半小時以半小時計費。全日7000元/月，日間6000元(08~20)/月，夜間5000元(20~08)/月。", "available": "45", "longitude": "121.559138", "latitude": "25.03278" },
    { "name": "吉祥平面停車場", "address": "光復北路11巷81號旁", "summary": "為一般平面式小型車30格(含身心障礙停車位1格)。", "tel": "2973-8999", "payex": "計時：30元/時，全程以半小時計費。月租：全日7,200元/月；東光里、復盛里里民全日5,760元/月;吉祥里里民全日5,040元/月。", "available": "28", "longitude": "121.561223", "latitude": "25.050334" },
    { "name": "松德臨時平面停車場", "address": "松德路底(中強公園旁)", "summary": "為平面停車場，計有101個小型車停車位，19個機車停車位。", "tel": "2722-0110", "payex": "計時：30元/時(全程以半小時計費)。月租：全日7,200元，全日里民優惠5,760元，日間2,000元(7-19)，夜間里民優惠1,500元(18-8，星期六、日、政府行政機關放假紀念日與民俗節時全日皆可停放)；優惠里：三犁、松友、安康等里。機車免費。", "available": "27", "longitude": "121.573509", "latitude": "25.031479" },
    { "name": "松德停車場", "address": "松勇路53巷68號對面空地；信義段三小段37-1、37-2地號。", "summary": "一般平面式小型車54格(含身心障礙停車位2格)。", "tel": "2246-1708#15", "payex": "40元/時，停車未滿1小時以1小時計，逾1小時以上者，未滿半小時以半小時計。月票：全日4,000元，日間(8-18)2,500元，夜間(18-8)2,500元。", "available": "N/A", "longitude": "121.573216", "latitude": "25.03438" },
    { "name": "吳興街284巷臨時平面停車場", "address": "吳興街284巷與吳興街260巷21弄交叉口旁", "summary": "為平面停車場，計有50格小型車，39格機車", "tel": "2786-7755", "payex": "計時：30元/時(全程以半小時收費)，機車免費。月租：全日7,200元，里民優惠3,840元(雙和、惠安、三張、景勤、及景新等里。", "available": "9", "longitude": "121.563673", "latitude": "25.025126" },
    { "name": "廣慈臨時平面停車場", "address": "大道路與大道路96巷交叉口", "summary": "一般平面式小型車109格(含身心障礙停車位3格)。", "tel": "2568-3773", "payex": "計時：(08-20)30元/時，(20-08)10元/時，全程以半小時計費。月租：全日3,000元，里民(中坡、中行、松光、大道里)2,400元，", "available": "N/A", "longitude": "121.582686", "latitude": "25.039651" },
    { "name": "府前廣場地下停車場", "address": "松壽路1號地下", "summary": "為地下二層停車場，計有2024個小型車停車格，1137個機車停車位", "tel": "2723-0000", "payex": "計時:30元(9-18)，夜間10元(18-9)，機車計次20元(當日當次，隔日另計)。月票:全日3,400元，所在里3,000元，日間2,400元(7-19)，夜間1,000元(週一至週五19-8時及假日)，機車300元。市府員工月票:全日2,900元，日間2,400元(7-22)，機車150元。本場提供計程車免費一小時服務。", "available": "N/A", "longitude": "121.562997", "latitude": "25.036089" },
    { "name": "松壽廣場地下停車場", "address": "松智路75號地下", "summary": "立體式小型車446格(含身心障礙停車位9格)。", "tel": "2722-8080", "payex": "計時：週一至週五(09-22)30元/時，(22-09)10元/時，假日(09-22)40元/時，(22-09)10元，全程半小時計費。月票：全日3,400元，日間(07-20)2,400元，夜間優惠(限週一至週五19-08及假日使用)1,000元。", "available": "N/A", "longitude": "121.56628", "latitude": "25.037147" },
    { "name": "臺北市災害應變中心地下停車場", "address": "莊敬路391巷11弄2號地下", "summary": "立體式小型車169格(含身心障礙停車位5格)。立體式機車208格(含身心障礙停車位5格)。", "tel": "2345-3859", "payex": "小型車計時30元(全程以半小時)。全日月票5,000元，日間(07-19)月票2,600元，所在里民優惠(三張里)月票3,500，停車場出入口周邊服務半徑300公尺範圍內設籍里民(景新里、三犁里、景勤里、雙和里、惠安里)月票4,000元。機車暫不收費。本場提供計程車免費一小時服務。", "available": "N/A", "longitude": "121.566226", "latitude": "25.028806" },
    { "name": "雅祥公園地下停車場", "address": "松隆路123巷7號地下", "summary": "立體式小型車204格(含身心障礙停車位5格)。", "tel": "2765-5716", "payex": "週一至週四計時40元，週五至週日及政府行政機關放假之紀念日與民俗日計時50元(全程以半小時計費)。月租：全日4,800元，夜間2,000元(週一至週五19-8及假日)，所在里(雅祥里)優惠3,360元，300公尺鄰近里優惠3,840元。本場提供計程車免費一小時服務。", "available": "N/A", "longitude": "121.57187", "latitude": "25.047444" },
    { "name": "台北世界貿易中心展覽三館停車場", "address": "松壽路6號", "summary": "計有665格小型車格，527格機車格。", "tel": "2725-5200#2803", "payex": "小型車：50元/時，停車未滿1小時以1小時計，逾1小時以上者，未滿半小時以半小時計。月租：小型車5,000元/月；機車500元/月。計次：機車40元/次，每隔1夜停放，加計1次收費。", "available": "N/A", "longitude": "121.564502", "latitude": "25.035327" },
    { "name": "台北君悅大飯店停車場", "address": "松壽路2號B1、B2", "summary": "計有390個小型車停車位。", "tel": "02-2720-1005", "payex": "70元/時，停車逾1小時以上者，未滿半小時以半小時計費。6300元/月，34020元/半年，60480元/年。", "available": "N/A", "longitude": "121.562613", "latitude": "25.035703" },
    { "name": "臺北世界貿易中心展覽大樓停車場", "address": "信義路5段5號B1", "summary": "為地下停車場，341格小型車", "tel": "2725-5200#2688", "payex": "(08-22時)100元/時，(22-08時)40元/時，停車未滿1小時以1小時計，逾1小時以上者，未滿半小時以半小時計費。月租：固定車位6,800元/月，24小時無固定車位5,000元/月，日間時段(07-22時)無固定車位(含貿協同仁)4,200元/月，夜間時段(19-翌日08時)2,200元/月", "available": "N/A", "longitude": "121.562327", "latitude": "25.033335" },
    { "name": "台北世界貿易中心國際貿易大樓地下停車場", "address": "基隆路1段333號B1~B3", "summary": "為立體停車場，計有418個小型車停車位。", "tel": "2757-6834", "payex": "100元/時，停車未滿1小時以1小時計費，逾1小時以上者，未滿半小時以半小時計費。每月固定車位：6300元/月（僅限大樓租戶）", "available": "N/A", "longitude": "121.56113", "latitude": "25.034315" },
    { "name": "台北國際會議中心停車場", "address": "信義路五段1號", "summary": "計有18個大型車停車位，483個小型車停車位。", "tel": " ", "payex": "50元/小時,續每半小時25元", "available": "N/A", "longitude": "121.560865", "latitude": "25.033318" },
    { "name": "威秀A17停車場", "address": "松壽路20號B1、B2", "summary": "立體式小型車105格(含身心障礙停車位2格)、立體式機車格157格(含身心障礙停車位3格)", "tel": "02-8780-5566#323", "payex": "計時：小型車50元/時，機車20元/時，停車未滿半小時以半小時計。月租：小型車全日4,600元/月，半日3,700元/月，機車月租1,000元/月。", "available": "N/A", "longitude": "121.56722", "latitude": "25.035373" },
    { "name": "威秀A16停車場", "address": "松壽路18號B1", "summary": "為立體停車場，計有100個機車格，74個小型車格", "tel": "8780-5566#323", "payex": "計時：小型車50元/時，機車20元/時，停車未滿半小時以半小時計。月租：小型車全日4,600元/月，半日3,700元/月，機車月租1,000元/月。", "available": "N/A", "longitude": "121.566639", "latitude": "25.035363" },
    { "name": "興雅國中地下停車場", "address": "松德路200巷18號地下", "summary": "立體式小型車447格(含身心障礙停車位9格)。", "tel": "2758-5499", "payex": "計時30元，(全程以半小時計費)。月票4,800元，日間月票3,000元(7-19)，夜間月票2,400元(19-8)，所在里(信義區安康里)優惠3,360元，停車場出入口周邊半徑300公尺鄰近里(信義區松友里三犁里)優惠3,840元。本場提供計程車免費一小時服務。", "available": "N/A", "longitude": "121.57281", "latitude": "25.034906" },
    { "name": "松山高中地下停車場", "address": "基隆路1段156號地下", "summary": "立體式小型車228格(含身心障礙停車位5格)。", "tel": "2768-5492", "payex": "週一至週五(8-20)計時30元，(20-8)計時10元，假日(8-9、19-20)計時30元，(9-19)計時60元，(20-8)計時10元(全程以半小時計費)。月租：全日優惠5,760元，(新仁里、興雅里、敦厚里)里民全日優惠4,600元。本場提供計程車免費一小時服務。", "available": "N/A", "longitude": "121.564074", "latitude": "25.044076" },
    { "name": "忠信地下停車場", "address": "松仁路2號地下", "summary": "立體式小型車314格(含身心障礙停車位7格)。立體式機車255格(含身心障礙停車位5格)。", "tel": "2345-9578", "payex": "每小時40元，(全程以半小時計費)，月票：全日5,200元，日間(07-19)3,600元，夜間(19-08)2,880元，所在里(興雅里)優惠3,640元，半徑300公尺鄰近里(西村里、廣居里、安康里、富台里、敦厚里、六藝里)優惠4,160元機車計次20元，全日月票300元。本場提供計程車免費一小時服務。", "available": "N/A", "longitude": "121.567783", "latitude": "25.040419" },
    { "name": "台北101停車場", "address": "市府路45號B2~B4", "summary": "計有1263個小型車格，2990機車格", "tel": "8101-8293", "payex": "計時：小型車平日70元/時，假日100元/時，機車20元/時，停車未滿1小時以1小時計，逾1小時以上者，未滿半小時以半小時計費。月租：小型車10,000元/月。", "available": "N/A", "longitude": "121.56373", "latitude": "25.033735" },
    { "name": "遠企中心地下停車場", "address": "敦化南路2段207號B4、B5", "summary": "為地下停車場，計有425個小型車停車位。", "tel": "2736-3033", "payex": "計時：100元/時，5分鐘以內免費，全程以半小時計費。", "available": "N/A", "longitude": "121.549255", "latitude": "25.026007" },
    { "name": "信義廣場地下停車場", "address": "信義路5段11號地下", "summary": "立體式小型車372格(含身心障礙停車位8格)。立體式機車233格(含身心障礙停車位3格)。", "tel": "8780-0133", "payex": "計時：週一至週五(22-8)計時10元，(8-22)計時30元，假日(22-8)計時10元，(8-22)計時40元；機車計次20元(每日零時清場)。月票：全日優惠月票3,500元，所在里3,360元，日間月票3,000元(7-20)，夜間月票500元(21-8)，機車300元/月。本場提供計程車免費一小時服務。", "available": "N/A", "longitude": "121.565811", "latitude": "25.033146" },
    { "name": "北寧路地下停車場", "address": "八德路3段25號地下1層及地下2層", "summary": "為地下停車場，計有78個小型車", "tel": "0936-959-539", "payex": "(99.1.1委外)40元/時(9-21)，30元/時(21-09)(以半小時計費)，停車時數逾半小時以上，其超過之不滿1小時部份，以1小時計算。夜間2000元/月(平常日：18-9，星期六、日及政府行政機關放假之紀念日全日均可使用)。", "available": "N/A", "longitude": "121.552416", "latitude": "25.048721" },
    { "name": "市民大道(敦延段)", "address": "敦化南路-延吉街(地下)", "summary": "立體式小型車217格(含身心障礙停車位5格)。", "tel": "2577-4364", "payex": "計時：週一週五：(8-22)30元，(22-8)10元，週六至週日：(8-18)30元，(18-23)40元，(23-08)10元，全程以半小時計費。月租：全日6,500，日間(7-19)3,600元，夜間(19-8)3,000元。本場提供計程車免費一小時服務。", "available": "N/A", "longitude": "121.550609", "latitude": "25.044666" },
    { "name": "市民大道(延吉段)", "address": "延吉街兩側(地下)", "summary": "立體式小型車79格(含身心障礙停車位2格)。", "tel": "2579-3244", "payex": "計時：週日至週四：(8-12)30元，(12-23)40元，(23-08)10元，週五至週六：(8-12)40元，(12-23)50元，(23-08)10元，全程以半小時計費。月租：全日6,500，日間(7-19)3,600元，夜間(19-8)3,000元。本場提供計程車免費一小時服務。", "available": "N/A", "longitude": "121.553575", "latitude": "25.044367" },
    { "name": "偶戲博物館地下停車場", "address": "市民大道5段99號(地下一層)", "summary": "為立體、地下停車場，計有69個小型車停車位。45個機車停車位", "tel": "0937-276-666", "payex": "計時：周一至周五30元/時，周六至周日及政府行政機關放假之紀念日及民俗節計時40元/時，全程以半小時計費。月租：全日5,400元，里民優惠(吉祥里、新仁里)4,200元，所在里(復盛里)3,675元，機車免費。", "available": "N/A", "longitude": "121.562061", "latitude": "25.047283" },
    { "name": "中崙高中地下停車場", "address": "八德路4段101號地下", "summary": "立體式小型車347格(含身心障礙停車位7格)。", "tel": "2528-4969", "payex": "計時：週一至週五30元/時，假日40元/時，全程以半小時計費。月租：全日5,200元，日間(7-19)4,400元，夜間(19-8)2,400元。本場提供計程車免費一小時服務。", "available": "N/A", "longitude": "121.561162", "latitude": "25.050013" },
    { "name": "僑安地下停車場", "address": "忠孝東路4段306號地下", "summary": "立體式小型車422格(含身心障礙停車位10格)。", "tel": "2711-5547", "payex": "計時：40元/時，夜間30元(22-8)，全程半小時計費。月租：全日7,200元/月，日間4,200元/月(8-20)，夜間3,600元/月(20-8)。本場提供計程車免費一小時服務。", "available": "N/A", "longitude": "121.556664", "latitude": "25.040999" },
    { "name": "三張里地下停車場", "address": "松平路81號地下", "summary": "立體式小型車356格(含身心障礙停車位8格)。立體式機車220格(含身心障礙停車位4格)。", "tel": "2758-9690", "payex": "計時30元(全程以半小時計費)。全日優惠月票5,000元，月票：日間2,600元(7-19)，夜間2,600元(19-8)，所在里(三張里)優惠3,500元，半徑300公尺臨近里(景新里、西村里、安康里、三犁里)優惠4,000元，機車月票300元，機車計次20元。本場提供計程車免費一小時服務。", "available": "N/A", "longitude": "121.566748", "latitude": "25.030915" },
    { "name": "春光公園地下停車場", "address": "忠孝東路5段666號地下", "summary": "立體式小型車213格(含身心障礙停車位5格)。立體式機車68格(含身心障礙停車位3格)。", "tel": "2726-8210", "payex": "計時30元(8-20)，夜間計時10元(20-8)(全程以半小時計費)。月票：全日6,000元，日間3,600元(7-19)，夜間3,600元(19-8)，所在里(松光里)優惠4,200，停車場出入口周邊服務半徑300公尺內里民優惠4,800元，機車計次20元，機車月票300元。本場提供計程車免費一小時服務。", "available": "N/A", "longitude": "121.580699", "latitude": "25.042242" },
    { "name": "信義國小地下停車場", "address": "信義區松勤街60號地下", "summary": "立體式小型車231格(含身心障礙停車位5格)。立體式機車50格(含身心障礙停車位1格)。", "tel": "2758-8124", "payex": "小型車每小時30元(全程以半小時計費)，全日月票5,000元，所在里民優惠(景新里)月票3,500元，停車場出入周邊半徑300公尺里民優惠(景勤里、景聯里、三張里、西村里)4,000元。本場提供計程車免費一小時服務。", "available": "N/A", "longitude": "121.563227", "latitude": "25.03137" },
    { "name": "市府轉運站停車場", "address": "忠孝東路5段6號B1、B2、B4、B5", "summary": "為地下立體停車場，計有595個機車格，473格小型車", "tel": "2722-1166#8507", "payex": "臨停：汽車平日計時40元，假日計時60元，機車平日計時10元，最高30元，假日計時20元，最高60元，停車未滿1小時以1小時計，逾1小時以上者未滿半小時以半小時計。月租：汽車7,000元，日間(08-20)6,000元，夜間(20-08)4,000元，機車600元。", "available": "N/A", "longitude": "121.565163", "latitude": "25.040668" },
    { "name": "BELLAVITA寶麗廣場停車場", "address": "松仁路28號地下1、2、4、5樓", "summary": "為立體地下停車場，計有168個小型車格，243個機車格。", "tel": "8729-2828", "payex": "小型車120元/時，機車60元/時，停車未滿1小時以1小時計，逾1小時以上者，未滿半小時以半小時計。", "available": "N/A", "longitude": "121.567917", "latitude": "25.03973" },
    { "name": "京華城停車場", "address": "八德路4段138號地下B5~B8", "summary": "立體式小型車1457格(含身心障礙停車位30格)。", "tel": "3762-1688#77400", "payex": "計時：40元/時，進場未滿15分鐘可免費出場，停車未滿1小時以1小時計，逾1小時以上者，未滿半小時以半小時計。月租：全日6,000元，日間3,000，夜間僅限里民1,200元。", "available": "N/A", "longitude": "121.562493", "latitude": "25.048546" },
    { "name": "松山工農地下停車場", "address": "忠孝東路5段236巷15號地下", "summary": "立體式小型車239格(含身心障礙停車位5格)。立體式機車189格(含身心障礙停車位4格)。", "tel": "2759-0666", "payex": "周一至周五計時30元，假日計時40元(全程以半小時計費)，月票：全日5,200元，停車場所在里(廣居里及安康里6鄰)里民全日優惠3,640元，停車場出入口周圍服務半徑300公尺內(富台里、興雅里、安康里及國業里)里民全日優惠4,160元。本場提供計程車免費一小時服務。", "available": "N/A", "longitude": "121.572294", "latitude": "25.039581" },
    { "name": "ATT 4 FUN停車場", "address": "松壽路12號地下2樓", "summary": "", "tel": "8780-8111", "payex": "小型車、機車每小時50元，停車未滿1小時以1小時計，逾1小時以上者，未滿半小時以半小時計。", "available": "N/A", "longitude": "121.566053", "latitude": "25.035671" },
    { "name": "臺北文創停車場", "address": "光復南路89巷88號", "summary": "", "tel": "2523-5000#132", "payex": "汽車計時80元/時，機車計時10元/時，停車未滿1小時以1小時計，逾1小時以上者，未滿半小時以半小時計。汽車月租：全天8000元/月，機車月租：全天800元/月。機車計次：一日30元/次。", "available": "N/A", "longitude": "121.561928", "latitude": "25.044659" },
    { "name": "嘉興公園地下停車場", "address": "嘉興街373號", "summary": "立體式小型車195格(含身心障礙停車位4格)。立體式機車64格(含身心障礙停車位2格)。", "tel": "8732-1451", "payex": "小型車計時：30元/時，全程以半小時計費。小型車月租：全日4,800元/月。機車計次：20元/次。機車月租：300元/月。本場提供計程車免費一小時服務。", "available": "N/A", "longitude": "121.552044", "latitude": "25.021464" },
    { "name": "應安168延吉停車場", "address": "延吉街246巷10號B1、B2", "summary": "為立體地下停車場，計有30個小型車格，94格機車", "tel": "2325-2595", "payex": "小型車60元/時，停車逾1小時以上者，未滿半小時以半小時計費。14,400元/月，機車60元/次，1,800元/月。里民全日優惠八折，所在里里民全日優惠七折。", "available": "N/A", "longitude": "121.555316", "latitude": "25.035242" },
    { "name": "吳興街220巷平面停車場", "address": "吳興街220巷75號對面", "summary": "為平面停車場，計有96個小型車格", "tel": "04-2263-5866", "payex": "計時30元/時，全程以半小時計費。全日月票7,200元/月，里民優惠全日3,840元/月(景勤里、景聯里、黎順里、雙和里及嘉興里)。", "available": "N/A", "longitude": "121.560411", "latitude": "25.02565" },
    { "name": "吳興街220巷(一)平面停車場", "address": "吳興街220巷內(於臺北醫學院對面)", "summary": "為平面停車場，計有138個小型車格", "tel": "0980-115-897", "payex": "計時30元(計時收費全程以半小時計費)。全日月票7,200元，全日里民優惠月票3,840元。", "available": "N/A", "longitude": "121.561686", "latitude": "25.027369" },
    { "name": "吳興街220巷(二)平面停車場", "address": "吳興街220巷鄰信安街(414平面)", "summary": "為平面停車場，計有167個小型車格", "tel": "04-2263-5866", "payex": "計時30元/時，全程以半小時計費。全日月票7,200元/月，里民優惠全日3,840元/月(信義區景勤里、景聯里、黎順里、雙和里、嘉興里、黎平里及黎中里)。", "available": "N/A", "longitude": "121.558519", "latitude": "25.026157" },
    { "name": "便利停車場大安地政事務所站", "address": "信義路4段335巷6號B1~B3", "summary": "為平面停車場，計有70個小型車，157個機車格", "tel": "2799-1001#155", "payex": "計時：80元/時，洽公民眾30分內免費；全程以半小時計費。月租：全日7,000元；日間(08-20)5,000元；員工1,000元。機車10元/次。", "available": "N/A", "longitude": "121.556507", "latitude": "25.033742" },
    { "name": "台灣聯通福安停車場", "address": "仁愛路4段258號", "summary": "塔台，計56個小型停車格", "tel": "2523-5000", "payex": "100元/時，停車逾1小時以上者，未滿半小時以半小時計費。全日12,000元/月，日間11,000元(08~20)/月，夜間10,000元(20~08)/月", "available": "N/A", "longitude": "121.553123", "latitude": "25.037335" },
    { "name": "臺灣聯通敦南停車場", "address": "敦化南路2段206號", "summary": "計有60個小型停車格", "tel": "2523-5000", "payex": "60元/時，停車逾1小時以上者，未滿半小時以半小時計。月租：全天8000元/月，日間7000元(08~20)/月，夜間6000元/月。", "available": "N/A", "longitude": "121.548347", "latitude": "25.022598" },
    { "name": "台灣聯通敦化場停車場", "address": "市民大道4段136號", "summary": "  ", "tel": "2523-5000", "payex": "80元/時，停車未滿1小時以1小時計，逾1小時以上者，未滿半小時以半小時計費。全日8,000元/月，日間(08-20)：7,000元/月，夜間(20-08)：6,000元/月。", "available": "N/A", "longitude": "121.551541", "latitude": "25.04427" },
    { "name": "四維路成功市場臨時攤棚", "address": "敦化南路2段112號旁", "summary": "為平面停車場，計有57個小型停車格", "tel": " ", "payex": "(100.2.1委外)計時40元。全日月票9,600元，全日里民優惠月票7,680元(群英、臥龍、虎嘯、全安、義安、龍雲里)，所在里里民優惠6720元/月(群賢里)。", "available": "N/A", "longitude": "121.54838", "latitude": "25.026823" },
    { "name": "台灣聯通監理站停車場", "address": "八德路4段32號", "summary": "計有80個小型車格", "tel": "2523-5000", "payex": "80元/時，停車未滿1小時以1小時計，逾1小時以上者，未滿半小時以半小時計費。全日8000元/月，日間7000元(08~20)/月，夜間6000元(20~08)/月。", "available": "N/A", "longitude": "121.55898", "latitude": "25.048173" },
    { "name": "台灣聯通基隆路停車場", "address": "信義路4段468號", "summary": "為機械停車場，計有58個小型車格(含身心障礙停車位1格)", "tel": "2523-5000", "payex": "60元/時，停車未滿1小時以1小時計，逾1小時以上者，未滿半小時以半小時計費。全日7000元/月，日間6000元(08~20)/月，夜間5000元(20~08)/月。", "available": "N/A", "longitude": "121.559138", "latitude": "25.03278" },
    { "name": "吉祥平面停車場", "address": "光復北路11巷81號旁", "summary": "為一般平面式小型車30格(含身心障礙停車位1格)。", "tel": "2973-8999", "payex": "計時：30元/時，全程以半小時計費。月租：全日7,200元/月；東光里、復盛里里民全日5,760元/月;吉祥里里民全日5,040元/月。", "available": "N/A", "longitude": "121.561223", "latitude": "25.050334" },
    { "name": "松德臨時平面停車場", "address": "松德路底(中強公園旁)", "summary": "為平面停車場，計有101個小型車停車位，19個機車停車位。", "tel": "2722-0110", "payex": "計時：30元/時(全程以半小時計費)。月租：全日7,200元，全日里民優惠5,760元，日間2,000元(7-19)，夜間里民優惠1,500元(18-8，星期六、日、政府行政機關放假紀念日與民俗節時全日皆可停放)；優惠里：三犁、松友、安康等里。機車免費。", "available": "N/A", "longitude": "121.573509", "latitude": "25.031479" },
    { "name": "松德停車場", "address": "松勇路53巷68號對面空地；信義段三小段37-1、37-2地號。", "summary": "一般平面式小型車54格(含身心障礙停車位2格)。", "tel": "2246-1708#15", "payex": "40元/時，停車未滿1小時以1小時計，逾1小時以上者，未滿半小時以半小時計。月票：全日4,000元，日間(8-18)2,500元，夜間(18-8)2,500元。", "available": "N/A", "longitude": "121.573216", "latitude": "25.03438" },
    { "name": "吳興街284巷臨時平面停車場", "address": "吳興街284巷與吳興街260巷21弄交叉口旁", "summary": "為平面停車場，計有50格小型車，39格機車", "tel": "2786-7755", "payex": "計時：30元/時(全程以半小時收費)，機車免費。月租：全日7,200元，里民優惠3,840元(雙和、惠安、三張、景勤、及景新等里。", "available": "N/A", "longitude": "121.563673", "latitude": "25.025126" },
    { "name": "廣慈臨時平面停車場", "address": "大道路與大道路96巷交叉口", "summary": "一般平面式小型車109格(含身心障礙停車位3格)。", "tel": "2568-3773", "payex": "計時：(08-20)30元/時，(20-08)10元/時，全程以半小時計費。月租：全日3,000元，里民(中坡、中行、松光、大道里)2,400元，", "available": "N/A", "longitude": "121.582686", "latitude": "25.039651" },
    { "name": "昶泰行", "address": "松仁路135號旁；信義段3小段52-7、52-11地號", "summary": "計有16格小型車格", "tel": "7718-7686", "payex": "60元/時，停車未滿1小時以1小時計，逾1小時以上者，未滿半小時以半小時計。月租：8,000元/月。", "available": "N/A", "longitude": "121.568697", "latitude": "25.033422" },
    { "name": "大安教會停車場", "address": "和平東路三段1巷51號", "summary": "為平面停車場，計有45個小型停車格", "tel": "02-2706-4477", "payex": "臨停：50元/時(08:00~18:00)，20元/時(18:00~08:00)。月租：5000元/月(08:00~18:00)，5000元/月(18:00~08:00)，全月9000元/月，星期日06:30-15:00不開放停車。", "available": "N/A", "longitude": "121.546964", "latitude": "25.027376" },
    { "name": "新長越臥龍街停車場", "address": "臥龍街23巷巷內空地、21號側(學府路一小段422地號)", "summary": "為平面停車場，計有14個小型車停車格。", "tel": "2778-5756", "payex": "全日月票7200元，里民月票5760元，日間月票3600元(07:00-19:00)，夜間月票3600元(19:00-07:00)，計時30元。   94.11.1委外", "available": "N/A", "longitude": "121.547247", "latitude": "25.023754" },
    { "name": "TIMES忠孝東路停車場", "address": "仁愛段6小段317地號；敦化南路1段177巷42號旁", "summary": "為平面停車場，計有10個小型車格", "tel": "0800-88-8924", "payex": "計時：100元/時，停車未滿1小時以1小時計，逾1小時以上者，未滿半小時以半小時計費。月租：10,000元。", "available": "N/A", "longitude": "121.551253", "latitude": "25.042927" },
    { "name": "延吉廢鐵道停車場", "address": "(忠孝東路-延吉街)忠孝東路廢鐵道處", "summary": "一般平面式小型車231格(含身心障礙停車位6格)。", "tel": "", "payex": "計時：40元/時，全程以半小時計費。", "available": "N/A", "longitude": "121.554587", "latitude": "25.043687" },
    { "name": "明曜百貨停車場", "address": "忠孝東路4段200號B2、B3", "summary": "為地下停車場，計有64個小型車停車位。", "tel": "2777-1266#277", "payex": "100元/時，停車未滿1小時以1小時計，逾1小時以上者，未滿半小時以半小時計。", "available": "N/A", "longitude": "121.552065", "latitude": "25.041228" },
    { "name": "羅馬洗車場", "address": "忠孝東路四段177號後側", "summary": "為平面停車場，計有12個小型車格", "tel": "0800-222-444", "payex": "計時：60元/時，停車未滿1小時以1小時計，逾1小時以上者，未滿半小時以半小時計。", "available": "N/A", "longitude": "121.55062", "latitude": "25.042022" },
    { "name": "敦化大樓停車場", "address": "敦化南路1段245號B4", "summary": "為地下停車場，計有62個小型車停車位。", "tel": "2772-2731", "payex": "100元/時，停車逾1小時以上者，未滿半小時以半小時50元計費。", "available": "N/A", "longitude": "121.549259", "latitude": "25.03904" },
    { "name": "龍昌大樓機電管理顧問股份有限公司仁愛營業處", "address": "仁愛路4段10號", "summary": "立體式小型車50格(含身心障礙停車位1格)。", "tel": "2609-9520", "payex": "計時：40元/時，入場前30分鐘免費，全程以半小時計費。月租：全日7000元/月。", "available": "N/A", "longitude": "121.545525", "latitude": "25.037514" },
    { "name": "建成大廈停車場", "address": "忠孝東路4段162、166號地下室", "summary": "立體式小型車23格(含身心障礙停車位1格)。", "tel": "2558-7883", "payex": "計時：80元/時，停車未滿1小時以1小時計，逾1小時以上者，未滿半小時以半小時計。月租：8,000元/月。", "available": "N/A", "longitude": "121.550301", "latitude": "25.041256" },
    { "name": "太平洋崇光百貨(股)公司敦化分公司停車場", "address": "敦化南路1段246號地下4樓", "summary": "為地下停車場，計有15個小型車格", "tel": "2776-5555#2941", "payex": "計時：120元/時，全程以半小時計費", "available": "N/A", "longitude": "121.548359", "latitude": "25.040156" },
    { "name": "台灣捷通安和場", "address": "安和路2段86號", "summary": "塔台式小型停50格(含身心障礙1格)。", "tel": "2523-5000", "payex": "計時:80元/時，停車未滿1小時以1小時計，逾1小時以上者，未滿半小時以半小時計。月租：全天10,000元/月、日間8,000元/月(07:00-19:00)，夜間6,000元/月(19:00-7:00)。", "available": "N/A", "longitude": "121.550437", "latitude": "25.029371" },
    { "name": "應安168華視停車場", "address": "光復南路100號B1~B2", "summary": "為立體停車場，計有124個小型車格", "tel": "02-2754-6661", "payex": "80元/時，停車逾1小時以上者，未滿半小時以半小時計費。月租9000元/月。", "available": "N/A", "longitude": "121.557495", "latitude": "25.043487" },
    { "name": "應安168敦南停車場", "address": "敦化南路2段46號B2", "summary": "為地下停車場，計有30個小型車格", "tel": "2754-6661", "payex": "60元/時，停車未滿1小時以1小時計，逾1小時以上者，未滿半小時以半小時計費。", "available": "N/A", "longitude": "121.548258", "latitude": "25.031254" },
    { "name": "月娥停車場", "address": "仁愛段4小段249、253地號；敦化南路1段臨297號", "summary": "為平面停車場，計有6個小型車格", "tel": "2708-4315", "payex": "計時：60元/時，停車未滿1小時以1小時計，逾1小時以上者，未滿半小時以半小時計費。", "available": "N/A", "longitude": "121.549288", "latitude": "25.035307" },
    { "name": "九如大樓停車場", "address": "忠孝東路4段155號後空地", "summary": "計有9格小型停車格", "tel": "2771-6840", "payex": "60元/時，停車未滿1小時以1小時計，逾1小時以上者，未滿半小時以半小時計費。", "available": "N/A", "longitude": "121.54999", "latitude": "25.042042" },
    { "name": "敦安停車場", "address": "仁愛段4小段247-1、248-1、257地號；敦化南路1段295巷4號", "summary": "為平面停車場，計有4個小型車格", "tel": "2755-3879", "payex": "60元/時，停車未滿1小時以1小時計，停車逾1小時以上，未滿半小時以半小時計", "available": "N/A", "longitude": "121.54953", "latitude": "25.035378" },
    { "name": "大統領停車場", "address": "忠孝東路4段191號地下一樓", "summary": "為立體停車場，計有9格小型停車格", "tel": "8771-9740", "payex": "計時：60元/時，停車未滿1小時以1小時計，逾1小時以上者，未滿半小時以半小時計。", "available": "N/A", "longitude": "121.551163", "latitude": "25.041775" },
    { "name": "岳洋敦南停車場", "address": "通化段6小段172、180、189、189-2、189-3、189-5地號；敦化南路2段201號旁空地", "summary": "為平面停車場，計有48格小型停車格", "tel": "2246-1708#15", "payex": "計時：80元/時，停車未滿1小時以1小時計，逾1小時以上者，未滿半小時以半小時計。月租：全日10,500元，日間8,400元(07-21)，夜間6,300元(19-09)。", "available": "N/A", "longitude": "121.5493", "latitude": "25.026625" },
    { "name": "榕樹下停車場", "address": "仁愛段4小段262、262-1、263地號；敦化南路1段303號之1空地", "summary": "為平面停車場，計有23個小型車", "tel": "", "payex": "60元/時，停車未滿1小時以1小時計，停車逾1小時以上，未滿半小時以半小時計，但超過時間未滿5分鐘者，不予計算。6000元/月", "available": "N/A", "longitude": "121.549264", "latitude": "25.035125" },
    { "name": "光復平面停車場", "address": "仁愛段1小段23-2、24、24-4地號； 光復南路306號旁空地", "summary": "", "tel": "2752-3039", "payex": "80元/時，停車未滿1小時以1小時計費，逾1小時以上者，未滿半小時以半小時計費。平日8時30分至11時，60元/時。", "available": "N/A", "longitude": "121.557355", "latitude": "25.038744" },
    { "name": "長伸停車場", "address": "信義路4段378巷7號B2", "summary": "為機械停車場，計有14個小型車", "tel": "27001478", "payex": "70元/時，停車未滿1小時以1小時計，停車逾1小時以上者，未滿半小時以半小時計費，月租：5,000元/月", "available": "N/A", "longitude": "121.555933", "latitude": "25.032546" },
    { "name": "慕求花園停車場", "address": "信義路4段107號旁；復興段3小段384地號", "summary": "", "tel": "0800-88-8924", "payex": "計時：100元/時，停車未滿1小時以1小時計，逾1小時以上者，未滿半小時以半小時計。月租：10,000元。", "available": "N/A", "longitude": "121.547372", "latitude": "25.033593" },
    { "name": "長誼停車場", "address": "大安區仁愛段2小段193地號；仁愛路四段345巷15弄1之1號對面", "summary": "一般平面式小型車3格(含身心障礙停車位1格)。", "tel": "27783650", "payex": "計時：100元/時，停車未滿1小時以1小時計，逾1小時以上者，未滿半小時以半小時計。月租5,000元/月。", "available": "N/A", "longitude": "121.553967", "latitude": "25.039171" },
    { "name": "Times敦南信義", "address": "大安區通化段5小段416、416-1、416-2、419、420、423地號；敦化南路二段11巷1號", "summary": "一般平面式小型車47格(含身心障礙停車位1格)。", "tel": "0800-88-8924", "payex": "計時：100元/時，停車未滿1小時以1小時計，逾1小時以上者，未滿半小時以半小時計費。月租：全日10,000元/月。", "available": "N/A", "longitude": "121.549359", "latitude": "25.032365" },
    { "name": "驛馬站收費停車場", "address": "學府段1小段191地號；樂業街21號對面空地", "summary": "一般平面式小型車9格(含身心障礙停車格1格)", "tel": "2517-3645", "payex": "計時：100元/時，停車未滿1小時以1小時計，逾1小時以上者，未滿半小時以半小時計費。月租：全日10,000元。", "available": "N/A", "longitude": "121.550073", "latitude": "25.023546" },
    { "name": "敦和停車場", "address": "大安區通化段5小段447、448-1、449-1地號；敦化南路二段37巷10號旁空地", "summary": "一般平面式小型車37格(含身心障礙停車位1格)。", "tel": "2240-8767", "payex": "計時：80元/時，停車未滿1小時以1小時計，逾1小時以上者，未滿半小時以半小時計費。月租：全日10,000元/月。", "available": "N/A", "longitude": "121.549682", "latitude": "25.031938" },
    { "name": "便利停車場敦南站", "address": "大安區敦化南路一段111號B1~B4", "summary": "立體式小型車83格(含身心障礙停車位2格)。立體式機車198格(含身心障礙停車位4格)。", "tel": "2799-1001#155", "payex": "計時：80元/時，停車未滿1小時以1小時計，逾1小時以上者，未滿半小時以半小時計費。月租：固定車位：16,000元；不固定車位：全日9,000元，日間8,000，夜間6,000元。", "available": "N/A", "longitude": "121.549474", "latitude": "25.044408" },
    { "name": "便利停車場大安地政事務所二站", "address": "仁愛段3小段335-4、374-3地號；信義路4段335巷6號旁空地", "summary": "一般平面式小型車7格(含身心障礙停車位1格)。", "tel": "2799-1001#155", "payex": "計時：80元/時，全程以半小時計費。", "available": "N/A", "longitude": "121.5566", "latitude": "25.033406" },
    { "name": "便利停車場大安地政事務所一站", "address": "仁愛段3小段335-3地號；信義路4段335巷6號旁空地", "summary": "一般平面式小型車5格(含身心障礙停車位1格)。", "tel": "2799-1001#155", "payex": "計時：80元/時，全程以半小時計費。", "available": "N/A", "longitude": "121.556632", "latitude": "25.033988" },
    { "name": "應安168四維停車場", "address": "大安段一小段167地號；四維路150號旁空地", "summary": "一般平面式小型車3格(含身心障礙停車位1格)。", "tel": "2754-6661#18", "payex": "計時:70元/時，停車未滿1小時以1小時計，逾1小時以上未滿半小時以半小時計。", "available": "N/A", "longitude": "121.547865", "latitude": "25.031108" },
    { "name": "莎軒停車場", "address": "光復南路676巷18號之1", "summary": "塔台式小型車34格(含身心障礙停車位1格)。", "tel": "27785756", "payex": "計時：10元/時(00~08)，30元/時(08~18)，50元/時(18~24)，停車未滿1小時以1小時計，停車逾1小時以上者，未滿半小時以半小時計。月租：8000元/月。", "available": "N/A", "longitude": "121.556355", "latitude": "25.030733" },
    { "name": "美格停車場通化站", "address": "通化段2小段1047、1047-1、1047-2、1047-3地號 .通化街171巷1號", "summary": "計有49格小型停車格", "tel": "2655-1516#5822", "payex": "計時：80元/時，停車未滿1小時以1小時計，逾1小時以上者，未滿半小時以半小時計費。月租：8,000元。", "available": "N/A", "longitude": "121.553855", "latitude": "25.028163" },
    { "name": "助安忠孝停車場", "address": "仁愛段6小段139-4地號；忠孝東路4段223巷61號空地", "summary": "計有2格小型停車格", "tel": "2754-6661", "payex": "計時:100元/時，停車未滿1小時以1小時，逾1小時以上者，未滿半小時以半小時計費。", "available": "N/A", "longitude": "121.552865", "latitude": "25.043395" },
    { "name": "復旦停車場", "address": "仁愛段6小段263-4.263-5地號；敦化南路1段149號旁空地", "summary": "平面停車場，計有13個小型車格", "tel": "2709-8677", "payex": "計時：60元/時，停車未滿1小時以1小時計，逾1小時以上者，未滿半小時以半小時計費。月租：全日9,500元，日間(08-18)8,000元，夜間(20-08)5,500元。", "available": "N/A", "longitude": "121.54949", "latitude": "25.044132" },
    { "name": "敦南大樓停車場", "address": "敦化南路2段93~95號B3~B5", "summary": "為立體停車場，計有122個小型車", "tel": "2702-4488", "payex": "80元/時，停車未滿1小時以1小時計，逾1小時以上者，未滿半小時以半小時計費。", "available": "N/A", "longitude": "121.549228", "latitude": "25.029291" },
    { "name": "敦南停車場", "address": "通化段6小段175、176、177、179、179-1~179-5地號.敦化南路2段201號旁空地", "summary": "計有49個小型車停車位。", "tel": "2246-1708#15", "payex": "計時：80元/時，停車未滿1小時以1小時計，逾1小時以上者，未滿半小時以半小時計。月租：全日10,500元，日間8,400元(07-21)，夜間6,300元(19-09)。", "available": "N/A", "longitude": "121.549112", "latitude": "25.027033" },
    { "name": "富邦金融大樓停車場", "address": "仁愛路4段169號B2~B6", "summary": "立體停車場，計有379個小型車格", "tel": "2326-1986", "payex": "80元/時。停車未滿1小時以1小時計；停車逾1小時以上者，未滿半小時以半小時計費。月租10000元/月", "available": "N/A", "longitude": "121.552207", "latitude": "25.038293" },
    { "name": "宏都金殿停車場", "address": "安和路2段100號B3", "summary": "計有7格小型停車格", "tel": "2755-6599", "payex": "80元/時，停車未滿1小時以1小時計費，停車逾1小時以上者，未滿半小時以半小時計費。全日8000元/月。", "available": "N/A", "longitude": "121.549773", "latitude": "25.028398" },
    { "name": "宏遠大樓停車場", "address": "信義路4段236號地下1至4樓；通化段4小段20、20-1、20-2地號", "summary": "為立體停車場，計有140個小型車格", "tel": "2246-1708", "payex": "80元/時，停車未滿1小時以1小時計，逾1小時以上者，未滿半小時以半小時計費。", "available": "N/A", "longitude": "121.552956", "latitude": "25.032701" },
    { "name": "上通停車場", "address": "忠孝東路4段146巷1號B1", "summary": "計有11格小型停車格", "tel": "2740-2828", "payex": "80元/時，停車未滿1小時以1小時計，逾1小時以上者，未滿半小時以半小時計費。月租：8000元/月。", "available": "N/A", "longitude": "121.549824", "latitude": "25.041041" },
    { "name": "臨江停車場", "address": "通化段4小段525地號；通安街66號旁空地", "summary": "為平面停車場，計有16個小型停車格", "tel": "2555-8600", "payex": "80元/時，全程以半小時計時。月租：10000元/月。", "available": "N/A", "longitude": "121.553081", "latitude": "25.030655" },
    { "name": "禾典大安站", "address": "大安段3小段71地號。四維路176巷16號旁空地", "summary": "為平面停車場，計有8個小型停車格", "tel": "2704-4718", "payex": "計時：40元/時，停車未滿1小時以1小時計，逾1小時以上者，未滿半小時以半小時計費。月租：全日7,000元，日間6,000元(09-20)，夜間5,000元(19-07)。", "available": "N/A", "longitude": "121.547004", "latitude": "25.027831" },
    { "name": "鼎晟停車場", "address": "忠孝東路4段181巷40弄9號B4", "summary": "為地下停車場，計有47個小型車格", "tel": "2775-5924", "payex": "80元/時，停車未滿1小時以1小時計，逾1小時以上者，未滿半小時以半小時計費。月租：12,000元/月。", "available": "N/A", "longitude": "121.55017", "latitude": "25.044208" },
    { "name": "銀座停車場", "address": "敦化南路187巷37?39?41?13?45?45-1?45-2號B3", "summary": "", "tel": "8773-3898", "payex": "60元/時，停車未滿1小時以1小時計，逾1小時以上者，未滿半小時以半小時計。5000元/月", "available": "N/A", "longitude": "121.551389", "latitude": "25.042735" },
    { "name": "財團法人臺北市私立復興實驗高級中學附設地下停車場", "address": "敦化南路1段262號B3", "summary": "", "tel": "27715859#125", "payex": "80元/時，停車未滿小1小時以1小時計，逾1小時以上者，未滿半小時以半小時計費。9000元/月；敦化南路1段252、272巷及仁愛路4段71巷里民：7000元/月。", "available": "N/A", "longitude": "121.548372", "latitude": "25.039398" },
    { "name": "嘟嘟房四維站停車場", "address": "大安段3小段226地號；四維路216巷19號旁空地", "summary": "為平面停車場，計有11個小型車格", "tel": "2655-1516", "payex": "計時：60元/時，停車未滿1小時以1小時計，逾1小時以上者，未滿半小時以半小時計。", "available": "N/A", "longitude": "121.546895", "latitude": "25.026098" },
    { "name": "帝國延吉停車場", "address": "市民大道4段190號B1", "summary": "為地下停車場，計有10個小型停車格", "tel": "2722-9208", "payex": "30元/時，全程以半小時收費。月租：5,500元/月。", "available": "N/A", "longitude": "121.554261", "latitude": "25.044182" },
    { "name": "華視大樓地下停車場", "address": "光復南路116巷7號", "summary": "為地下停車場，計有98個小型停車格", "tel": "02-2754-6661", "payex": "月租7000元/月。", "available": "N/A", "longitude": "121.556813", "latitude": "25.043342" },
    { "name": "應安168華視二停車場", "address": "台北市大安區光復南路96巷與光復南路72巷7弄交叉口", "summary": "為平面停車場，計有15格小型車", "tel": "02-2754-6661", "payex": "計時：80元/時，停車未滿1小時以1小時計，逾1小時以上者，未滿半小時以半小時計。月租9000元/月。", "available": "N/A", "longitude": "121.556993", "latitude": "25.04377" },
    { "name": "大崴物業管理股份有限公司", "address": "光復南路116巷7號", "summary": "為立體停車場，計有24格小型車", "tel": "27601655", "payex": "月租：7000元/月。", "available": "N/A", "longitude": "121.555744", "latitude": "25.043812" },
    { "name": "北歐停車場", "address": "仁愛路4段230號B1", "summary": "為機械停車場，計有22個小型車格", "tel": "2709-1667", "payex": "計時：60元/時，停車未滿1小時以1小時計，逾1小時以上者，未滿半小時以半小時計。", "available": "N/A", "longitude": "121.552189", "latitude": "25.037453" },
    { "name": "臺北市大安區仁愛國民小學停車場", "address": "安和路1段60號", "summary": "為平面停車場，計有21個小型車", "tel": "2709-5010#401", "payex": "季票：6000元/季。本校現職、退休人員給予8折優惠。計次：50元/次(以4小時為1收費單位，限團體辦理活動當日借用本校場地停車使用)。", "available": "N/A", "longitude": "121.552265", "latitude": "25.035716" },
    { "name": "臺北市立大安國中（停車場）", "address": "大安路2段63號", "summary": "為平面停車場，計有30個小型車", "tel": "2755-7131", "payex": "季票：8400元/季。本校現職、退休人員及現(曾)任家長會長給予8折優惠，擔任本校志(義)工服務時數達80小時(請家長會認證)予9折優惠。計次：4小時內每車每次40元；4小時以上每車每次80元", "available": "N/A", "longitude": "121.547568", "latitude": "25.030851" },
    { "name": "臺北市立仁愛國民中學停車場", "address": "仁愛路4段130號", "summary": "為平面停車場，計有43個小型車格", "tel": "2325-5823#222", "payex": "季票：6000元/季。本校現職人員5折、退休人員及現(曾)任家長會長給予8折優惠，擔任本校志(義)工服務時數達80小時(家長會認證)予9折優惠。", "available": "N/A", "longitude": "121.551536", "latitude": "25.036775" },
    { "name": "楊停車場", "address": "通化段2小段766-1地號；通化街171巷31號旁空地", "summary": "為平面停車場，計有3個小型車格", "tel": "2735-1299", "payex": "計時：60元/時，停車未滿1小時以1小時計，逾1小時以上者，未滿半小時以半小時計費。", "available": "N/A", "longitude": "121.555436", "latitude": "25.027784" },
    { "name": "國泰綜合醫院分館停車場", "address": "仁愛段3小段103、107地號；仁愛路4段300巷17弄", "summary": "立體式小型車12格(含身心障礙停車位1格)。", "tel": "2731-7288#1632", "payex": "計時：60元(07~22)/時，停車未滿1小時以1小時計，逾1小時以上者，未滿半小時以半小時計費。計次：100元(22~07)/次", "available": "N/A", "longitude": "121.554687", "latitude": "25.036427" },
    { "name": "國泰綜合醫院本館停車場", "address": "仁愛路4段280號；仁愛路3小段113、124、140、152、157地號", "summary": "為平面停車場，計有16個小型車停車位。", "tel": "2731-7288#1632", "payex": "計時：60元/時(07~22)，停車未滿1小時以1小時計，逾1小時以上者，未滿半小時以半小時計。計次：100元/次(22~07)。", "available": "N/A", "longitude": "121.553222", "latitude": "25.036787" },
    { "name": "椰林停車場", "address": "復興段3小段574、576、578地號；復興南路1段295巷30號對面空地", "summary": "為平面停車場，計有40個小型車格", "tel": "2558-7883", "payex": "計時：60元/時，停車未滿1小時以1小時計，逾1小時以上者，未滿半小時以半小時計。月租：6,000元。", "available": "N/A", "longitude": "121.545806", "latitude": "25.03527" },
    { "name": "樂業停車場", "address": "樂業街17號B1", "summary": "為立體停車場，計有10個小型車格", "tel": "8732-0505", "payex": "計時：50元/時，停車未滿1小時以1小時計，逾1小時以上，未滿半小時以半小時計。月租：7,000元/月。", "available": "N/A", "longitude": "121.550099", "latitude": "25.023788" },
    { "name": "長揚停車場敦南站", "address": "敦化南2段63巷21弄旁空地；通化段5小段482地號", "summary": "為平面停車場，計有2個小型車格", "tel": "27619188", "payex": "60元/時，停車逾1小時以上者，未滿半小時以半小時計費。計次350元/日，全日7000元/月，日間5500元(08~19)/月，夜間4500元(19~08)/月。", "available": "N/A", "longitude": "121.550043", "latitude": "25.031228" },
    { "name": "禾典信義站停車場", "address": "大安段1小段217、217-1、217-4、218、219、220-2、221-1地號；大安路2段11號旁空地", "summary": "計有9個小型車格", "tel": "2709-8677", "payex": "60元/時，停車未滿1小時以1小時計，逾1小時以上者，未滿半小時以半小時計費。全日8000元/月，日間6000元/月，夜間4000元/月。", "available": "N/A", "longitude": "121.546137", "latitude": "25.032468" },
    { "name": "嘟嘟房敦化站停車場", "address": "忠孝東路4段205巷38-2號", "summary": "為塔台停車場，計有29個小型車格", "tel": "2655-1516", "payex": "計時：60元/時，停車未滿1小時以1小時計費，逾1小時以上者，未滿半小時以半小時計費。月租：6,000元/月。", "available": "N/A", "longitude": "121.551859", "latitude": "25.044201" },
    { "name": "好停停車場", "address": "復興段3小段353地號；大安路1段與信義路4段交叉口旁", "summary": "計有9個小型車格", "tel": "2240-8767", "payex": "計時：60元/時，停車未滿1小時以1小時計，逾1小時以上者，未滿半小時以半小時計。月租：8,000元/月。", "available": "N/A", "longitude": "121.546155", "latitude": "25.033572" },
    { "name": "台新停車場", "address": "仁愛路4段118號B3~B6", "summary": "計有170個小型車格", "tel": "2557-3722", "payex": "100元/時，停車逾1小時以上者，未滿半小時以半小時計費。全日5000元/月", "available": "N/A", "longitude": "121.54995", "latitude": "25.037397" },
    { "name": "中信停車場", "address": "信義路4段99巷旁；復興段三小段373-4.373-5.373-6.373-7", "summary": "計有23個小型車格位", "tel": "2240-8767", "payex": "60元/時，停車逾1小時以上者，未滿半小時以半小時計費。全日8000元/月。", "available": "N/A", "longitude": "121.54707", "latitude": "25.033861" },
    { "name": "夏合樂業停車場", "address": "學府段1小段203地號；樂業街29號對面空地", "summary": "一般平面式小型車2格(含身心障礙停車格1格)", "tel": "(02)2754-6661#18", "payex": "計時:60元/時，停車未滿1小時以1小時計,逾1小時以上者,未滿半小時以半小時計。計次:300元/日。", "available": "N/A", "longitude": "121.54977", "latitude": "25.023332" },
    { "name": "台灣聯通統領停車場", "address": "忠孝東路4段177號B1", "summary": "為立體停車場，計有15個小型車格", "tel": "2523-5000#135", "payex": "80元/時，停車未滿1小時以1小時計，停車逾1小時以上者，未滿半小時以半小時計費。全日8,000元/月，日間7,000元(08~20)/月，夜間6,000元(20~08)/月", "available": "N/A", "longitude": "121.550498", "latitude": "25.042009" },
    { "name": "好庭車大安停車場", "address": "信義路4段88號B2、B3", "summary": "為立體停車場，計有120個小型車格", "tel": "2748-4522", "payex": "計時：50元/時，停車未滿1小時以1小時計；停車逾1小時以上者，未滿半小時以半小時計費。月租：6,000元/月。", "available": "N/A", "longitude": "121.547481", "latitude": "25.03297" },
    { "name": "TIMES基隆路", "address": "學府段1小段91-8地號；基隆路2段234號旁空地", "summary": "為平面停車場，計有25個小型車格", "tel": "2504-6098", "payex": "80元/時，停車逾1小時以上者，未滿半小時以半小時計。月租：全日8000元。", "available": "N/A", "longitude": "121.550756", "latitude": "25.02316" },
    { "name": "四維廣場停車場", "address": "四維路52巷-信義路", "summary": "一般平面式小型車38格(含身心障礙停車位1格)。", "tel": "", "payex": "計時：40元/時，全程以半小時計費。", "available": "N/A", "longitude": "121.548201", "latitude": "25.034533" },
    { "name": "大崴停車場(B棟)", "address": "光復南路96巷25號(B棟)", "summary": "計有7個小型車格", "tel": "27601655", "payex": "月租：7000元。", "available": "N/A", "longitude": "121.55534", "latitude": "25.043656" },
    { "name": "大崴停車場", "address": "光復南路96巷25號；仁愛段5小段213地號", "summary": "計有18格小型車格", "tel": "27601655", "payex": "40元/時，停車未滿1小時以1小時計，逾1小時以上者，未滿半小時以半小時計。月租：全天7000元；日/夜間5000元。", "available": "N/A", "longitude": "121.555292", "latitude": "25.043867" },
    { "name": "TIMES敦化南路", "address": "敦化南路2段14號大樓附屬平面停車場", "summary": "計有8個小型車", "tel": "2504-6098", "payex": "計時：100元/時，停車未滿1小時以1小時計，逾1小時以上者，未滿半小時以半小時計。月租：全日10,000元。", "available": "N/A", "longitude": "121.548283", "latitude": "25.032623" },
    { "name": "七鼎信義停車場", "address": "信義路4段337、339號B1、B2", "summary": "為地下停車場，計有13個小型車", "tel": "2733-5806", "payex": "5500元/月。", "available": "N/A", "longitude": "121.556458", "latitude": "25.033399" },
    { "name": "大崴停車場(地下室)", "address": "光復南路72巷73號", "summary": "", "tel": "2760-1655", "payex": "月租：7000元/月。", "available": "N/A", "longitude": "121.555351", "latitude": "25.044115" },
    { "name": "TIMES樂業街停車場", "address": "樂業街41巷21號旁；學府段1小段91-4、93地號", "summary": "", "tel": "2504-6098", "payex": "80元/時，停車未滿1小時以1小時計，逾1小時以上者，未滿半小時以半小時計。月租：全日8000元。", "available": "N/A", "longitude": "121.550884", "latitude": "25.023503" },
    { "name": "博客停車場文昌站", "address": "臺北市大安區通化段5小段232、381、381-1地號；文昌街44號", "summary": "", "tel": "", "payex": "計時：60元/時，停車未滿1小時以1小時計，逾1小時以上者，未滿半小時以半小時計。月租：6000元/月。", "available": "N/A", "longitude": "121.550223", "latitude": "25.032684" },
    { "name": "嘟嘟房敦南2站停車場", "address": "敦化南路2段39號B3~B5", "summary": "", "tel": "2655-1516", "payex": "80元/時，停車未滿1小時以1小時計，逾1小時以上者，未滿半小時以半小時計。8000元/月。", "available": "N/A", "longitude": "121.549226", "latitude": "25.032023" },
    { "name": "嘟嘟房敦南誠品站停車場", "address": "敦化南路1段247巷1號B4~B5", "summary": "", "tel": "2655-1516", "payex": "100元/時，停車未滿1小時以1小時計，逾1小時以上者，未滿半小時以半小時計。月租：12000元/月。", "available": "N/A", "longitude": "121.549692", "latitude": "25.039145" },
    { "name": "安敦停車場", "address": "復興段3小段417、418地號；四維路76巷10號旁空地", "summary": "", "tel": "8243-1866", "payex": "50元/時，全程以半小時計費。月租：8,000元/月。", "available": "N/A", "longitude": "121.546421", "latitude": "25.034156" },
    { "name": "201停車場", "address": "臺北市大安區忠孝東路四段201號B2", "summary": "為立體停車場，計有26格小型停車格", "tel": "2752-2222#321", "payex": "50元/時，停車未滿1小時以1小時計，逾1小時以上者，未滿半小時以半小時計費。", "available": "N/A", "longitude": "121.550997", "latitude": "25.041976" },
    { "name": "台北慕軒停車場", "address": "台北市大安區敦化南路一段331號", "summary": "計有40個小型車格", "tel": "02-2722-9208", "payex": "70元/時，月租7000元/月", "available": "N/A", "longitude": "121.549324", "latitude": "25.034016" },
    { "name": "復源新城甲基地停車場", "address": "延吉段1小段283地號；光復南路22巷17號後側空地", "summary": "為平面停車場，計有21個小型車格", "tel": "2577-1389", "payex": "50元/時，停車逾1小時以上者，未滿半小時以半小時計費。4500元/月", "available": "N/A", "longitude": "121.55611", "latitude": "25.047194" },
    { "name": "大台北瓦斯大樓地下停車場", "address": "光復北路11巷33、35號地下3層", "summary": "計有108個小型車車位。", "tel": "27546661#18", "payex": "60元/時，停車未滿1小時以1小時計，逾1小時以上者，未滿半小時以半小時計。月租：全日8000元；夜間5000元。", "available": "N/A", "longitude": "121.559865", "latitude": "25.050217" },
    { "name": "應安168松信停車場", "address": "信義區虎林段3小段328地號；松信路3號旁空地", "summary": "一般平面式小型車16格(含身心障礙停車位1格)", "tel": "2754-6661#18", "payex": "臨停:80元/時，停車未滿1小時以1小時計，逾1小時以上者，未滿半小時以半小時計算，月租:8,000元/月", "available": "N/A", "longitude": "121.572642", "latitude": "25.049043" },
    { "name": "新長越市民大道站停車場", "address": "延吉段一小段657、658地號,市民大道4段257號空地", "summary": "為平面停車場，計有16個小型車", "tel": "2778-5756", "payex": "50元/時，停車未滿1小時以1小時計，逾1小時以上者，未滿半小時以半小時計費。全日6000元/月，日間4000元(08~18)/月，夜間(18~08、含例假日)4000元/月", "available": "N/A", "longitude": "121.554686", "latitude": "25.044782" },
    { "name": "新長越八德站停車場", "address": "西松段2小段296、297地號；八德路4段195號旁空地", "summary": "為平面停車場，計有3個小型車", "tel": "2778-5756", "payex": "8500元/月。", "available": "N/A", "longitude": "121.563617", "latitude": "25.048908" },
    { "name": "日日停車場", "address": "光復北路120巷25號空地；美仁段2小段44、44-1地號", "summary": "計有6格小型停車格", "tel": "2578-0924", "payex": "40元/時，停車未滿1小時以1小時計，逾1小時以上者，未滿半小時以半小時計費。", "available": "N/A", "longitude": "121.556912", "latitude": "25.051044" },
    { "name": "叭叭房八德一停車場", "address": "延吉段1小段439地號；八德路3段106巷13號空地", "summary": "為平面停車場，計有24個小型車格", "tel": "02-2655-0000", "payex": "臨時停車：第一小時100元，第二小時起每半小時50元，未滿半小時以半小時計費。 全日月租，每月10000元。", "available": "N/A", "longitude": "121.553842", "latitude": "25.047603" },
    { "name": "便利停車場八德站", "address": "西松段3小段175地號；八德路4段106巷3號旁空地", "summary": "為平面停車場，計有20個小型車停車位(含身心障礙停車位1格)。", "tel": "2799-1001#155", "payex": "50元/時，停車未滿1小時以1小時計，逾1小時以上者，未滿半小時以半小時計費。計次:200元/次，全日6,000元/月，夜間(20-08)3,000元/月。", "available": "N/A", "longitude": "121.561204", "latitude": "25.048147" },
    { "name": "台灣聯通前瞻停車場", "address": "南京東路5段1號B2~B4", "summary": "為立體停車場，計有45格小型車格", "tel": "2523-5000", "payex": "計時：80元/時，停車未滿1小時以1小時計，逾1小時以上者，未滿半小時以半小時計。月租：全日8,000元，日間7,000元(08~20)，夜間6,000元(20~08)元。", "available": "N/A", "longitude": "121.557438", "latitude": "25.051821" },
    { "name": "新長越光復南路停車場", "address": "延吉段1小段574地號.光復南路46巷35號旁空地", "summary": "一般平面式小型車8格(含身心障礙停車位1格)。", "tel": "2778-5756", "payex": "計時：60元/時，停車未滿1小時以1小時計，逾1小時以上者，未滿半小時以半小時計。月租：6,000元/月。", "available": "N/A", "longitude": "121.555069", "latitude": "25.045965" },
    { "name": "威京大樓停車場", "address": "東興路12號地下3、4樓", "summary": "立體式小型車90格(含身心障礙停車位2格)。", "tel": "8787-5280", "payex": "計時：40元/時，停車未滿1小時以1小時計，逾1小時以上者，未滿半小時以半小時計。月租：全天7,000元/月，日間(08-19)6,000元/月，夜間(19-08)5,000元/月。計次：200元/次(08-24)。", "available": "N/A", "longitude": "121.564907", "latitude": "25.049654" },
    { "name": "台灣聯通東興停車場", "address": "八德路4段312-1號", "summary": "計有44個小型車格", "tel": "2523-5000", "payex": "計時：80元/時，停車未滿1小時以1小時計，停車逾1小時以上者，未滿半小時以半小時計費。月租：全天8,000元/月，日間7,000元(08~20)/月，夜間6,000元(20~08)/月", "available": "N/A", "longitude": "121.567596", "latitude": "25.049052" },
    { "name": "建築賞停車場", "address": "八德路4段455號", "summary": "為立面停車場，計有51個小型車格", "tel": "2763-4189", "payex": "40元/時，停車逾1小時以上者，未滿半小時以半小時計費。全日5000元/月。", "available": "N/A", "longitude": "121.570659", "latitude": "25.050141" },
    { "name": "嘟嘟房南京東2站停車場", "address": "南京東路5段188號B5；西松路2小段2、33地號", "summary": "為立體停車場，計有82個小型停車格", "tel": "26551516", "payex": "80元/時。停車未滿1小時以1小時計；停車逾1小時以上者，未滿半小時以半小時計費。全日8000元/月", "available": "N/A", "longitude": "121.563549", "latitude": "25.051126" },
    { "name": "嘟嘟房京華城站停車場", "address": "西松段3小段146地號；東寧路21號旁空地。", "summary": "一般平面式小型車22格(含身心障礙停車位1格)。", "tel": "2655-1516", "payex": "計時：80元/時，停車未滿1小時以1小時計，逾1小時以上者，未滿半小時以半小時計。月租：8,000元/月。", "available": "N/A", "longitude": "121.563088", "latitude": "25.047828" },
    { "name": "保德信停車場", "address": "南京東路5段161號B3~B5", "summary": "為立體地下停車場，計有131個小型車格", "tel": "3765-5730", "payex": "計時：60元/時，停車未滿1小時以1小時計，停車逾1小時以上者，未滿半小時以半小時計。月租：7,200元/月。", "available": "N/A", "longitude": "121.562161", "latitude": "25.051759" },
    { "name": "育達停車場", "address": "松山區寧安街12號B2", "summary": "計有90個小型車格，369個機車格", "tel": "2557-3722", "payex": "100元/時，停車第一小時未滿以1小時計，逾1小時以上者，未滿半小時以半小時計。月租：小型車8,000元/月。機車50元/次。", "available": "N/A", "longitude": "121.554159", "latitude": "25.049655" },
    { "name": "台灣聯通大千停車場", "address": "南京東路5段108號B1、B2", "summary": "為立體停車場，計有31個小型車", "tel": "2523-5000", "payex": "80元/時，停車逾1小時以上者，未滿半小時以半小時計費。全日8000元/月，日間7000元(08~20)/月，夜間6000元(20~08)/月", "available": "N/A", "longitude": "121.562149", "latitude": "25.051217" },
    { "name": "聯通新高停車場", "address": "南京東路4段162之1號B2", "summary": "計有19個小型車停車位。", "tel": "2523-5000", "payex": "60元/時，停車逾1小時以上者，未滿半小時以半小時計費。全天8000元/月，日間7000元/月，夜間6000元/月", "available": "N/A", "longitude": "121.556573", "latitude": "25.05123" },
    { "name": "台灣聯通博仁醫院停車場", "address": "光復北路68號地下1層", "summary": "計有10格小型車格", "tel": "2523-5000", "payex": "計時：80元，停車未滿1小時以1小時計，逾1小時以上者，未滿半小時以半小時計。月租：全天8000元；日間(08-20)7000元；夜間(20-08)6000元", "available": "N/A", "longitude": "121.557623", "latitude": "25.050051" },
    { "name": "宏達經營管理顧問有限公司南京停車場", "address": "南京東路5段200號地下2層", "summary": "立體式小型車52格(含身心障礙停車位2格)。", "tel": "0933807293", "payex": "計時：50元/時，停車未滿1小時以1小時計，逾1小時以上者，未滿半小時以半小時計。月租：5,000元/月。", "available": "N/A", "longitude": "121.564283", "latitude": "25.051201" },
    { "name": "TIMES光復延吉停車場", "address": "光復南路46巷36-1號旁空地；台北市延吉段一小段585、586、587、602地號共計4筆。", "summary": "", "tel": "0800-88-8924", "payex": "100元/時，停車逾1小時以上者，未滿半小時以半小時計。全日10000元/月。", "available": "N/A", "longitude": "121.554478", "latitude": "25.045651" },
    { "name": "應安北寧停車場", "address": "八德路3段99巷1號；美仁段2小段735號", "summary": "", "tel": "8773-9828#9", "payex": "60元/時，停車未滿1小時以1小時計，逾1小時以上者，未滿半小時以半小時計。月租：6,000元/月。", "available": "N/A", "longitude": "121.553721", "latitude": "25.048577" },
    { "name": "光富南路平面停車場", "address": "松山區延吉段1小段121-1、122-1地號；光復南路22巷15號對面空地", "summary": "一般平面式小型車30格(含身心障礙停車位1格)。", "tel": "2568-3383", "payex": "計時：100元/時，全程以半小時計費，月租：8,800元。", "available": "N/A", "longitude": "121.556558", "latitude": "25.046773" },
    { "name": "嘟嘟房饒河夜市2站停車場", "address": "塔悠路36號旁空地，寶清段2小段209-6地號。", "summary": "一般平面式小型車7格(含身心障礙停車位1格)。一般平面式機車26格(含身心障礙停車位1格)。", "tel": "2655-1516", "payex": "計時：小型車100元/時，全程以半小時計費。月租：小型車全日10,000元/月。機車免費。", "available": "N/A", "longitude": "121.571134", "latitude": "25.050469" },
    { "name": "嘟嘟房饒河夜市1站停車場", "address": "八德路四段453巷14號對面空地；寶清段2小段209-4地號。", "summary": "一般平面式小型車15格(含身心障礙停車位1格)。", "tel": "2655-1516", "payex": "計時：100元/時，全程以半小時計費。月租：全日10,000元。", "available": "N/A", "longitude": "121.57046", "latitude": "25.050551" },
    { "name": "北寧路地下停車場", "address": "台北市松山區八德路三段25號地下室", "summary": "立體式小型車78格(含身心障礙停車位2格)。", "tel": "2568-3383", "payex": "計時：40元/時(09-21)，30元/時(21-09)，全程以半小時計費。月租：夜間(18-09)2,000元/月。", "available": "N/A", "longitude": "121.552295", "latitude": "25.048787" },
    { "name": "光復北路平面停車場", "address": "臺北市松山區八德路4段17巷", "summary": "一般平面式小型車24格(含身心障礙停車位1格)", "tel": "2759-0666", "payex": "每小時50元，全程以半小時計費", "available": "N/A", "longitude": "121.558302", "latitude": "25.048828" },
    { "name": "台北市區監理所平面停車場", "address": "台北市松山區八德路4段21號後面空地", "summary": "一般平面式小型車124格(含身心障礙停車位2格)", "tel": "25420001", "payex": "計時:50元/時(07-18)，前30分鐘免費，停車逾30分鐘未滿1小時以1小時計；30元/時(18-翌日07)，全程以半小時計費。月租:7,200元/月，全日里民4,200元/月，夜間2,000元/月。", "available": "N/A", "longitude": "121.558922", "latitude": "25.049024" },
    { "name": "國父紀念館第一停車場", "address": "仁愛路4段505號(國父紀念館西側光復南路第一停車場)", "summary": "一般平面式小型車114格(含身心障礙停車位2格)。", "tel": "8789-0119", "payex": "小型車40元/時，停車未滿10分鐘不收費，逾10分鐘未滿1小時以1小時計，逾1小時以上者，未滿半小時以半小時計，如逾半小時者，仍以1小時計。月租：9,000元/月。", "available": "N/A", "longitude": "121.558479", "latitude": "25.040163" },
    { "name": "松隆平面停車場", "address": "松隆路286號旁", "summary": "為平面停車場，計有19個小型車停車位，6個機車格位", "tel": "2455-1299", "payex": "計時30元/時。月租7,200元/月，全日里民優惠5,760元/月（信義區永吉里、五常里、雅祥里及松山區慈祐里），所在地里全日里民優惠5,040元/月(信義區四育里）。", "available": "N/A", "longitude": "121.575572", "latitude": "25.048326" },
    { "name": "中油大樓停車場", "address": "松仁路3號B1~B5", "summary": "計有615個小型車停車位，450個機車格", "tel": "8725-8847", "payex": "小型車30元/時，機車10元/時，停車逾1小時以上者，未滿半小時以半小時計費。汽車月租：全日時段8000元/月，上班時段3800元/月，下班時段4200元/月，機車月租400元/月。", "available": "N/A", "longitude": "121.569126", "latitude": "25.039659" },
    { "name": "普羅旺斯實業股份有限公司停車場", "address": "忠孝東路5段297號B4、B5", "summary": "計有138個小型停車格", "tel": "2749-5888", "payex": "50元/時，停車未滿1小時以1小時計，逾1小時以上者，未滿半小時以半小時計費。（逾營業時間收費亦同）", "available": "N/A", "longitude": "121.573164", "latitude": "25.041225" },
    { "name": "國立國父紀念館光復南路第一停車場", "address": "逸仙段2小段360地號；仁愛路4段505號(光復南路側停車場)", "summary": "一般平面式小型車114格(含身心障礙停車位2格)。", "tel": "8789-0119", "payex": "小型車40元/時，停車未滿10分鐘不收費，逾10分鐘未滿1小時以1小時計，逾1小時以上者，未滿半小時以半小時計，如逾半小時者，能以1小時計。", "available": "N/A", "longitude": "121.558256", "latitude": "25.038659" },
    { "name": "信義區行政中心停車場", "address": "信義路5段15號B2", "summary": "立體式小型車8格(含身心障礙停車位2格)。", "tel": "2723-9777", "payex": "30分鐘內免費，超過30分鐘未滿1小時30元/時，停車逾1小時以上者，未滿半小時以半小時40元收費，身心障礙者憑証免費。", "available": "N/A", "longitude": "121.566912", "latitude": "25.033208" },
    { "name": "一號交易廣場計時停車場", "address": "松仁路89號地下三樓", "summary": "為立體停車場，計有75個小型車", "tel": "8788-2929#15", "payex": "平日40元/時，停車未滿1小時以1小時計，逾1小時以上者，未滿半小時以半小時計費。", "available": "N/A", "longitude": "121.569003", "latitude": "25.037022" },
    { "name": "震旦國際大樓附設停車場", "address": "信義路5段2號B2", "summary": "為立體停車場，計有19個小型車", "tel": "2345-8035", "payex": "計時：50元/時，停車未滿1小時以1小時計，逾1小時以上者，未滿半小時以半小時計費。", "available": "N/A", "longitude": "121.559886", "latitude": "25.032784" },
    { "name": "便利停車場忠孝站", "address": "基隆路1段200號B3", "summary": "立體式小型車22格(含身心障礙停車位1格)。", "tel": "2799-1001#155", "payex": "臨停：100元/時，停車未滿1小時以1小時計，逾1小時以上者，未滿半小時以半小時計費。全天16,000元/月，夜間(19~07)4,000元/月", "available": "N/A", "longitude": "121.563488", "latitude": "25.040215" },
    { "name": "Neo19停車場", "address": "松壽路22號地下2樓", "summary": "計有85個小型車車位。", "tel": "2345-8819", "payex": "50元/時，停車逾1小時以上者，未滿半小時以半小時計費", "available": "N/A", "longitude": "121.567973", "latitude": "25.035693" },
    { "name": "金和興永吉站停車場", "address": "永吉段1小段21-2、23、23-1、27地號；中坡北路15巷17號對面空地", "summary": "為平面停車場，計有18個小車格", "tel": "87857501", "payex": "6000元/月。", "available": "N/A", "longitude": "121.580393", "latitude": "25.044966" },
    { "name": "群益金融大樓計時停車場", "address": "松仁路97至101號B3、B4", "summary": "平面停車場，計有122個小型車格", "tel": "8788-1164", "payex": "40元/時，停車未滿1小時以1小時計，逾1小時以上者，未滿半小時以半小時計費。", "available": "N/A", "longitude": "121.568797", "latitude": "25.036102" },
    { "name": "永吉路120巷平面停車場", "address": "永吉路120巷", "summary": "一般平面式小型車10格(含身心障礙停車位1格)。", "tel": "", "payex": "計時：每小時30元(全程以半小時計費)。", "available": "N/A", "longitude": "121.569792", "latitude": "25.044547" },
    { "name": "新光三越百貨公司信義店A8館停車場", "address": "松高路12號B3~B5", "summary": "為地下停車場，計有284個小型車格，482個機車格", "tel": "8780-9966", "payex": "汽車100元/時，機車20元/時。停車未滿半小時以半小時計。逾半小時以上者，未滿15分鐘以15分鐘計。", "available": "N/A", "longitude": "121.566737", "latitude": "25.03834" },
    { "name": "國泰金融大樓停車場", "address": "松仁路7、9號B3,信義區信義段三小段17、17-1地號", "summary": "為立體停車場，計有176個小型車格", "tel": "2246-1708", "payex": "計時：平日100元/時，假日50元/時，夜間50元/時(22~06)，停車未滿1小時以1小時計，逾1小時以上者，未滿半小時以半小時計費。月租：(7-22)4,200元/月；全日：5,250元/月。", "available": "N/A", "longitude": "121.5688", "latitude": "25.03867" },
    { "name": "新光三越百貨股份有限公司台北信義分公司停車場", "address": "松壽路11號B3~B5", "summary": "為地下停車場，計有284小型車格，469格機車", "tel": "8780-1000", "payex": "汽車100元/時，機車20元/時。停車未滿半小時以半小時計。逾半小時以上者，未滿15分鐘以15分鐘計。", "available": "N/A", "longitude": "121.567171", "latitude": "25.036151" },
    { "name": "松德大樓地下停車場", "address": "松德路", "summary": "立體式小型車28格(含身心障礙停車位2格)。一般平面式機車19格(含身心障礙停車位2格)。", "tel": "27590666#6062", "payex": "採季繳方式，每季優惠價新臺幣6,300元", "available": "N/A", "longitude": "121.574164", "latitude": "25.032033" },
    { "name": "太平洋商務中心台北會館", "address": "光復南路495號地下2樓", "summary": "計有31格小型停車格", "tel": "8780-2000", "payex": "計時60元，停車未滿1小時以1小時計，逾1小時以上者，未滿半小時以半小時計，當日計次250元，需先結帳。", "available": "N/A", "longitude": "121.557824", "latitude": "25.032491" },
    { "name": "世紀金融廣場大樓信基大樓停車場", "address": "信義路4段460號B3", "summary": "地下停車場，計有21個小型車格", "tel": "8788-2025", "payex": "80元/時，停車未滿1小時以1小時計，逾1小時以上者，未滿半小時以半小時計費。", "available": "N/A", "longitude": "121.558576", "latitude": "25.032744" },
    { "name": "永春停車場", "address": "永吉段4小段129、130地號；忠孝東路5段423巷5弄口", "summary": "計有14格小型車格", "tel": "0965-153-682", "payex": "計時：120元/時，停車未滿1小時以1小時計，逾1小時以上者，未滿半小時以半小時計。月租：全日10,000元。", "available": "N/A", "longitude": "121.575209", "latitude": "25.04185" },
    { "name": "台灣聯通松山停車場", "address": "東興路65號地下2樓", "summary": "為地下停車場，計有90個小型車", "tel": "2523-5000", "payex": "60元/時，停車未滿1小時以1小時計，逾1小時以上者，未滿半小時以半小時計費。全天10000元/月；日間8000元/月(08-20)；夜間3000元/月(18~08)。", "available": "N/A", "longitude": "121.566616", "latitude": "25.047041" },
    { "name": "信義傑仕堡停車場", "address": "信義路5段126號B2", "summary": "立體式小型車46格(含身心障礙停車位1格)。", "tel": "8780-2288#38004", "payex": "100元/時，停車位慢1小時以1小時計，逾1小時以上者，未滿半小時以半小時計費", "available": "N/A", "longitude": "121.569329", "latitude": "25.032193" },
    { "name": "便利停車場信義二站", "address": "信義段5小段29-4地號；信義路5段100號對面空地", "summary": "一般平面式小型車20格(含身心障礙停車位1格)。一般平面式機車22格(含身心障礙停車位1格)。", "tel": "02-2799-1001 #155", "payex": "汽車計時：60元/時，停車未滿1小時以1小時計，逾1小時以上者，未滿半小時以半小時計費。汽車月租：全天12,000元/月。機車計次：40元/次。", "available": "N/A", "longitude": "121.565169", "latitude": "25.032568" },
    { "name": "臺北市立信義國民中學停車場", "address": "松仁路158巷1號", "summary": "為平面停車場，計有20個小型車格", "tel": "2723-6771#526", "payex": "4500元/季，30元/次(限團體辦活動臨時借用場地，並於活動結束當日晚上10時前開離)。", "available": "N/A", "longitude": "121.567576", "latitude": "25.028841" },
    { "name": "助安168松智停車場", "address": "信義段5小段28、28-1、28-4、28-6、28-7、28-8、28-9；松智路與莊敬路391巷11弄路口", "summary": "為平面停車場，計有149個小型車格", "tel": "2754-6661#18", "payex": "60元/時，停車未滿1小時以1小時計，逾1小時以上者，未滿半小時以半小時計費。月租：8,000元/月。", "available": "N/A", "longitude": "121.565458", "latitude": "25.029265" },
    { "name": "昇榮信義停車場", "address": "松仁路130號正對面空地；信義段3小段52-4地號", "summary": "為平面停車場，計有40個小型車格", "tel": "2991-7978", "payex": "100元/時，停車未滿1小時以1小時計，逾1小時以上者，未滿半小時以半小時計費。6000元/月。", "available": "N/A", "longitude": "121.568665", "latitude": "25.033208" },
    { "name": "臺北醫學大學附設醫院停車場", "address": "吳興街250號B2、B3、B4", "summary": "為立體地下停車場，計有176個小型車格", "tel": "2737-2181#8417", "payex": "40元/時，前15分鐘內免費，停車未滿1小時以1小時計，逾1小時以上者，未滿半小時以半小時計費。月租：里民2,500元/月(周六下午14時至周日全天至周一上午8時)；民眾全日6,000元；夜間2,500元(下午18時至翌日上午9時)", "available": "N/A", "longitude": "121.561555", "latitude": "25.025836" },
    { "name": "應安168松勇停車場", "address": "信義段3小段43-5地號；信義路5段91巷26號對面空地", "summary": "為平面停車場，計有51個小型車格", "tel": "2754-6661#18", "payex": "40元/時，停車未滿1小時以1小時計，逾1小時以上者，未滿半小時以半小時計費。5000元/月。", "available": "N/A", "longitude": "121.571563", "latitude": "25.034514" },
    { "name": "三興市場大樓地下停車場", "address": "吳興街156巷6號地下1、2樓", "summary": "為機械停車場，計有64個小型車格", "tel": "2739-8366", "payex": "臨停：每小時60元，全程以半小時計。月租：8,000元。", "available": "N/A", "longitude": "121.561112", "latitude": "25.029065" },
    { "name": "台灣聯通誠品信義停車場", "address": "松高路11號B3~B5", "summary": "為地下停車場，計有201個小型車，1342個機車", "tel": "2523-5000", "payex": "汽車100元/時，機車20元/時，停車未滿1小時以1小時計，逾1小時以上者，未滿半小時以半小時計費。全天12000元/月，日間11000元(08~20)/月，夜間10000元(20~08)/月。", "available": "N/A", "longitude": "121.565298", "latitude": "25.039621" },
    { "name": "應安六合市場停車場", "address": "松仁路240巷19號B1~B2；吳興段4333-338地號", "summary": "為立體停車場，計有42格小型車", "tel": "2754-6661#18", "payex": "計時：小型車50元/時，未滿1小時者，以1小時計算收費。逾1小時以上者，未滿半小時以半小時計費。月租：小型車8,000元/月；機車1,000元/月。", "available": "N/A", "longitude": "121.568819", "latitude": "25.024437" },
    { "name": "全豐盛信義105停車場", "address": "松仁路105號地下3樓", "summary": "為地下立體停車場，計有50格小型車", "tel": "2722-7579", "payex": "50元/時，30分鐘內離場不計費，停車未滿1小時以1小時計，逾1小時以上者，未滿半小時以半小時計。24時後需付過夜停車費350元。", "available": "N/A", "longitude": "121.568766", "latitude": "25.035441" },
    { "name": "松山家商校內平面停車場", "address": "松山路665號", "summary": "為平面停車場，計有25個小型車", "tel": "2726-1118", "payex": "2,000元/月", "available": "N/A", "longitude": "121.580166", "latitude": "25.036113" },
    { "name": "叭叭房曼哈頓大樓停車場", "address": "信義路5段8號地下2、3、4、5樓", "summary": "", "tel": "2655-0000", "payex": "80元/時，停車未滿1小時以1小時計，逾1小時以上者，未滿半小時以半小時計。全日8000元/月。", "available": "N/A", "longitude": "121.560761", "latitude": "25.032739" },
    { "name": "信義停車場", "address": "信義段5小段29-3、29-5、29-6地號；松智路25號與松勤路90號旁空地", "summary": "一般平面式小型車84(含身心障礙停車位2格)。一般平面式機車116格(含身心障礙停車位4格)。", "tel": "2246-1708#15", "payex": "計時：50元/時，停車未滿1小時以1小時計，停車逾1小時以上者，未滿半小時以半小時計。月租：全日6,000元，日間(8-18)5,000元，夜間(18-8)4,000元。機車：30元/次。", "available": "N/A", "longitude": "121.564994", "latitude": "25.031762" },
    { "name": "南松山停車場", "address": "忠孝東路293號B1", "summary": "為立體停車場，計14個小型車格", "tel": "2778-5756", "payex": "計時：50元/時，停車未滿1小時以1小時計，逾1小時以上者，未滿半小時以半小時計。月租：6,000元。", "available": "N/A", "longitude": "121.572368", "latitude": "25.041282" },
    { "name": "新光三越百貨公司信義店A9館停車場", "address": "松壽路9號B3~B5", "summary": "為地下停車場，計有186小型車格，420格機車", "tel": "8780-5959", "payex": "立體式小型車186格(含身心障礙停車位3格)。立體式機車406格(含身心障礙停車位8格)。", "available": "N/A", "longitude": "121.566657", "latitude": "25.036527" },
    { "name": "新光三越百貨公司信義店A4館停車場", "address": "松高路19號地下1、2、4、5、6樓", "summary": "為地下停車場，計有212小型車格，433格機車", "tel": "8780-5599", "payex": "計時：100元/時，機車20元/時。全程以半小時計算。", "available": "N/A", "longitude": "121.566618", "latitude": "25.039514" },
    { "name": "新光信義金融停車場", "address": "松仁路36號B2", "summary": "計有121個小型車格", "tel": "2502-1363#107", "payex": "計時：100元/時，含大型重型機車，30分鐘內過卡可免費離場。停車未滿1小時以1小時計，逾1小時以上者，未滿半小時以半小時計費。", "available": "N/A", "longitude": "121.567954", "latitude": "25.038091" },
    { "name": "基隆路停車場", "address": "基隆路1段143號B3", "summary": "計有32個小型車格", "tel": "0932-196-255", "payex": "50元/時，停車未滿1小時以1小時計，逾1小時以上者，未滿半小時以半小時計費。7000元/月。", "available": "N/A", "longitude": "121.565947", "latitude": "25.04283" },
    { "name": "玄覺寺停車場", "address": "吳興段2小段629、629-1地號；吳興街284巷24弄86號旁", "summary": "計有17個小型車", "tel": "2246-1708", "payex": "6000元/月，週一至五：日間3000元(8~18)/月，夜間3000元(18~8)/月", "available": "N/A", "longitude": "121.561286", "latitude": "25.022469" },
    { "name": "TIMES松勤街停車場", "address": "松勤街41號西側空地；信義段5小段39-7、39-8、39-9地號", "summary": "", "tel": "2504-6098", "payex": "計時:100元/時，停車未滿1小時以1小時計，逾1小時以上者，未滿半小時以小時計。月租:全日10,000元/月。", "available": "N/A", "longitude": "121.562626", "latitude": "25.032165" },
    { "name": "愛馬屋世貿場", "address": "信義區光復南路567號", "summary": "計有58個小型車格", "tel": "2345-7749", "payex": "計時：80元/小時，停車未滿1小時以1小時計，如逾1小時以上者，未滿半小時以半小時計。月租：全天8,000元。", "available": "N/A", "longitude": "121.55766", "latitude": "25.030763" },
    { "name": "嘟嘟房世貿站停車場", "address": "信義路5段1號B1、B2", "summary": "計有376個小型車格", "tel": "2655-1516", "payex": "60元/時，停車未滿1小時以1小時計，逾1小時以上者，未滿半小時以半小時計。全日月租：6,000元/月", "available": "N/A", "longitude": "121.560699", "latitude": "25.033887" },
    { "name": "TIMES松仁路", "address": "松仁路169-201號中間空地；祥和段3小段328、328-1、329、329-1、330-2地號", "summary": "一般平面式小型車10格(含身心障礙停車位1格)。", "tel": "2504-6098", "payex": "100元/時，停車未滿1小時以1小時計，逾1小時以上者，未滿半小時以半小時計費。全日每月10,000元/月。", "available": "N/A", "longitude": "121.568567", "latitude": "25.028099" },
    { "name": "博客停車場信義站", "address": "信義路4段375號B1", "summary": "為立體停車場，計有18個小型車格", "tel": "2948-8889", "payex": "計時：60元/時，停車未滿1小時以1小時計，逾1小時以上者，未滿半小時以半小時計。月租：6,500元/月，日間(08-18)5,500元/月，夜間(18-翌日08)5,500元/月。", "available": "N/A", "longitude": "121.557861", "latitude": "25.033304" },
    { "name": "TIMES光復南路", "address": "信義路4段393-5號前方", "summary": "立體式小型車10格(含身心障礙停車位1格)", "tel": "2504-6098", "payex": "計時:100元/時，停車未滿1小時以1小時計，停車逾1小時以上者，未滿半小時以半小時計費。月租：全日10000元/月。", "available": "N/A", "longitude": "121.558348", "latitude": "25.033572" },
    { "name": "國父紀念館第二停車場", "address": "逸仙段2小段360地號；仁愛路4段505號(忠孝東路側停車場)", "summary": "一般平面式小型車104格(含身心障礙停車位4格)。", "tel": "8789-0119", "payex": "小型車40元/時，停車未滿10分鐘不收費，逾10分鐘未滿1小時以1小時計，逾1小時以上者，未滿半小時以半小時計，如逾半小時者，仍以1小時計。月租：9,000元/月。", "available": "N/A", "longitude": "121.560786", "latitude": "25.040827" },
    { "name": "臺北市立永春高級中學停車場", "address": "松山路654號", "summary": "計有78個小型車格，162個機車格", "tel": "27272983#591", "payex": "每月2000元整。", "available": "N/A", "longitude": "121.578958", "latitude": "25.033634" },
    { "name": "詮營信義101停車場", "address": "信義路5段101大樓對面空地；信義段5小段29-2地號", "summary": "一般平面式小型車87格(含身心障礙停車位2格)。一般平面式機車48格(含身心障礙停車位1格)。", "tel": "2793-5818", "payex": "汽車計時：90元/時，停車未滿1小時以1小時計，逾1小時以上者，未滿半小時以半小時計。汽車月租：全天8,000元。機車計次：50元/次。", "available": "N/A", "longitude": "121.564801", "latitude": "25.032573" },
    { "name": "松興合署辦公大樓地下停車場", "address": "松隆路36號地下2樓", "summary": "", "tel": "2561-4400", "payex": "全日月票10000元。", "available": "N/A", "longitude": "121.567548", "latitude": "25.043329" },
    { "name": "信義路5段150巷平面停車場", "address": "信義路5段150巷431弄對面", "summary": "一般平面式小型車18格(含身心障礙停車位1格)。", "tel": "2759-0666", "payex": "小型車：20元/時，停車時數以半小時計算收費，停車時數逾半小時以上，其超過之不滿1小時部分仍以1小時收費。", "available": "N/A", "longitude": "121.571785", "latitude": "25.024037" },
    { "name": "吳興街600巷平面停車場", "address": "吳興街600巷37弄對面", "summary": "一般平面式小型車20格(含身心障礙停車位1格)。", "tel": "2759-0666", "payex": "小型車：20元/時，停車時數以半小時計算收費，停車時數逾半小時以上，其超過之不滿1小時部分仍以1小時收費。", "available": "N/A", "longitude": "121.569563", "latitude": "25.020684" },
    { "name": "台灣聯通松高停車場", "address": "松高路1號地下3樓", "summary": "", "tel": "2523-5000", "payex": "100元/時，停車未滿1小時以1小時計，停車逾1小時以上者，未滿半小時以半小時計費。月租：全天12000元/月，日間(08-20)11000元/月，夜間(20-08)10000元/月。", "available": "N/A", "longitude": "121.564312", "latitude": "25.039517" },
    { "name": "微風松高地下停車場", "address": "松高路16號地下4、5樓", "summary": "", "tel": "66008888#3602", "payex": "100元/時，逾1小時以上者，未滿半小時以半小時計費。", "available": "N/A", "longitude": "121.567388", "latitude": "25.038404" },
    { "name": "信義D1停車場", "address": "信義段5小段39-11、39-16地號；松勤接41號旁空地", "summary": "", "tel": "2557-3722", "payex": "汽車計時：80元/時，停車未滿1小時以1小時計，逾1小時以上者，未滿半小時以半小時計費；汽車月租：全天8000元。", "available": "N/A", "longitude": "121.56208", "latitude": "25.032246" },
    { "name": "Times信安街", "address": "台北市信義區梨和段3小段299地號；台北市信義區信安街162號", "summary": "", "tel": "2504-6098", "payex": "80元/時，停車未滿1小時以1小時計，逾1小時以上者，未滿半小時以半小時計。月租：8000元。", "available": "N/A", "longitude": "121.555411", "latitude": "25.023682" },
    { "name": "嘟嘟房市府站停車場", "address": "臺北市信義區忠孝路五段15巷15號", "summary": "為立體機械停車場，計有87個小型車格", "tel": "2655-1516", "payex": "60元/時，停車逾1小時以上者，未滿半小時以半小時計費。6000元/月。", "available": "N/A", "longitude": "121.565975", "latitude": "25.042127" },
    { "name": "吳興街156巷25弄平面停車場", "address": "台北市信義區吳興街156巷25弄內(15號斜對面)", "summary": "一般平面式小型車31格(含身心障礙停車位1格)。一般平面式機車23格(含身心障礙停車位1格)。", "tel": "04-2263-5866", "payex": "計時30元/時，全程以半小時計費。全日月票7,200元/月，里民優惠全日3,840元/月(景勤里、景聯里、雙和里、景新里及三張里)機車免費。", "available": "N/A", "longitude": "121.561046", "latitude": "25.028288" },
    { "name": "松高路臨時平面停車場", "address": "台北市信義區松高路、松勇路口；信義段3小段6地號", "summary": "一般平面式大型車45格。一般平面式小型車53格(含身心障礙停車位2格)。", "tel": "0981-924598", "payex": "計時：大型車80元/時，小型車40元/時，停車未滿1小時以1小時計，逾1小時以上，未滿半小時以半小時計。月租：大型車9,600元、小型車5,000元。", "available": "N/A", "longitude": "121.570196", "latitude": "25.039669" },
    { "name": "禾典永吉站", "address": "忠孝東路五段743巷21弄21號1F-B3", "summary": "立體式小型車55格(含身心障礙停車位1格)。立體式機車45格(含身心障礙停車位1格)。", "tel": "2704-4718", "payex": "計時：60元/時，停車未滿1小時以1小時計，逾1小時以上者，未滿半小時以半小時計費，機車10元/時，單日上限50元。月租：全天8,000元，日間6,000元，夜間4,500元，機車1,200元。", "available": "N/A", "longitude": "121.580174", "latitude": "25.043655" },
    { "name": "微風信義地下停車場", "address": "忠孝東路五段68號B3", "summary": "立體式小型車130格(含身心障礙停車位9格)。", "tel": "66008888#3620", "payex": "計時：100元/時，停車未滿1小時以1小時計，逾1小時以上者，未滿半小時以半小時計費。", "available": "N/A", "longitude": "121.56681", "latitude": "25.040492" },
    { "name": "富邦松山停車場", "address": "基隆路一段98號B2、B3、B4", "summary": "立體式小型車144格(含身心障礙停車位4格)。", "tel": "2764-5717", "payex": "計時：40元/時，停車未滿1小時以1小時計，逾1小時以上者，未滿半小時以半小時計費。月租：全天5,000/月。", "available": "N/A", "longitude": "121.567068", "latitude": "25.046165" },
    { "name": "基隆路停車場", "address": "臺北市信義區三興段一小段1083、1084地號；基隆路二段22號旁空地", "summary": "一般平面式小型車3格(含身心障礙停車位1格)", "tel": "2778-5756", "payex": "100/時，未滿一小以一小時計，未滿半小以半小時計費，月租：8,000/月。", "available": "N/A", "longitude": "121.56958", "latitude": "25.050399" }
]
