{ "toilet": [{ "lon": 121.525913, "address": "臺北市中正區北平東路30號對面", "name": "中央藝文公園女", "type": "廁所", "lat": 25.046065 }, { "lon": 121.525913, "address": "臺北市中正區北平東路30號對面", "name": "中央藝文公園男", "type": "廁所", "lat": 25.046065 }, { "lon": 121.525913, "address": "臺北市中正區北平東路30號對面", "name": "中央藝文公園親子", "type": "廁所", "lat": 25.046065 }, { "lon": 121.539471, "address": "臺北市中山區八德路二段214號", "name": "中油中崙加油站男女", "type": "廁所", "lat": 25.046256 }, { "lon": 121.533103, "address": "臺北市大安區仁愛路三段1號", "name": "中油新生南路加油站男女", "type": "廁所", "lat": 25.038425 }, { "lon": 121.523887, "address": "臺北市中正區林森北路11號", "name": "中油林森北路加油站女", "type": "廁所", "lat": 25.046145 }, { "lon": 121.523887, "address": "臺北市中正區林森北路11號", "name": "中油林森北路加油站男", "type": "廁所", "lat": 25.046145 }, { "lon": 121.526942, "address": "臺北市大安區金山南路二段77號", "name": "中油金山南路加油站男女", "type": "廁所", "lat": 25.031564 }, { "lon": 121.542263, "address": "臺北市中山區八德路二段295號", "name": "丹堤咖啡八德中崙店男女", "type": "廁所", "lat": 25.047697 }, { "lon": 121.540675, "address": "臺北市大安區忠孝東路三段228號", "name": "丹堤咖啡忠孝復興店男女", "type": "廁所", "lat": 25.041904 }, { "lon": 121.542603, "address": "臺北市大安區信義路三段184號1樓", "name": "丹堤咖啡捷運大安店男女", "type": "廁所", "lat": 25.033183 }, { "lon": 121.529431, "address": "臺北市大安區永康街22號", "name": "丹堤咖啡永康店男女", "type": "廁所", "lat": 25.031289 }, { "lon": 121.534739, "address": "臺北市大安區濟南路三段25號", "name": "丹堤咖啡濟南店男女", "type": "廁所", "lat": 25.040283 }, { "lon": 121.531773, "address": "臺北市中正區市民大道三段8號", "name": "光華數位新天地1F東女", "type": "廁所", "lat": 25.045796 }, { "lon": 121.531773, "address": "臺北市中正區市民大道三段8號", "name": "光華數位新天地1F東男", "type": "廁所", "lat": 25.045796 }, { "lon": 121.531773, "address": "臺北市中正區市民大道三段8號", "name": "光華數位新天地1F西女", "type": "廁所", "lat": 25.045796 }, { "lon": 121.531773, "address": "臺北市中正區市民大道三段8號", "name": "光華數位新天地1F西無障礙", "type": "廁所", "lat": 25.045796 }, { "lon": 121.531773, "address": "臺北市中正區市民大道三段8號", "name": "光華數位新天地1F西男", "type": "廁所", "lat": 25.045796 }, { "lon": 121.531773, "address": "臺北市中正區市民大道三段8號", "name": "光華數位新天地2F西女", "type": "廁所", "lat": 25.045796 }, { "lon": 121.531773, "address": "臺北市中正區市民大道三段8號", "name": "光華數位新天地2F西無障礙", "type": "廁所", "lat": 25.045796 }, { "lon": 121.531773, "address": "臺北市中正區市民大道三段8號", "name": "光華數位新天地2F西男", "type": "廁所", "lat": 25.045796 }, { "lon": 121.531773, "address": "臺北市中正區市民大道三段8號", "name": "光華數位新天地3F西女", "type": "廁所", "lat": 25.045796 }, { "lon": 121.531773, "address": "臺北市中正區市民大道三段8號", "name": "光華數位新天地3F西無障礙", "type": "廁所", "lat": 25.045796 }, { "lon": 121.531773, "address": "臺北市中正區市民大道三段8號", "name": "光華數位新天地3F西男", "type": "廁所", "lat": 25.045796 }, { "lon": 121.531773, "address": "臺北市中正區市民大道三段8號", "name": "光華數位新天地4F東女", "type": "廁所", "lat": 25.045796 }, { "lon": 121.531773, "address": "臺北市中正區市民大道三段8號", "name": "光華數位新天地4F東男", "type": "廁所", "lat": 25.045796 }, { "lon": 121.531773, "address": "臺北市中正區市民大道三段8號", "name": "光華數位新天地4F西女", "type": "廁所", "lat": 25.045796 }, { "lon": 121.531773, "address": "臺北市中正區市民大道三段8號", "name": "光華數位新天地4F西無障礙", "type": "廁所", "lat": 25.045796 }, { "lon": 121.531773, "address": "臺北市中正區市民大道三段8號", "name": "光華數位新天地4F西男", "type": "廁所", "lat": 25.045796 }, { "lon": 121.531773, "address": "臺北市中正區市民大道三段8號", "name": "光華數位新天地5F東女", "type": "廁所", "lat": 25.045796 }, { "lon": 121.531773, "address": "臺北市中正區市民大道三段8號", "name": "光華數位新天地5F東男", "type": "廁所", "lat": 25.045796 }, { "lon": 121.531773, "address": "臺北市中正區市民大道三段8號", "name": "光華數位新天地5F西女", "type": "廁所", "lat": 25.045796 }, { "lon": 121.531773, "address": "臺北市中正區市民大道三段8號", "name": "光華數位新天地5F西無障礙", "type": "廁所", "lat": 25.045796 }, { "lon": 121.531773, "address": "臺北市中正區市民大道三段8號", "name": "光華數位新天地5F西男", "type": "廁所", "lat": 25.045796 }, { "lon": 121.531773, "address": "臺北市中正區市民大道三段8號", "name": "光華數位新天地6F東女", "type": "廁所", "lat": 25.045796 }, { "lon": 121.531773, "address": "臺北市中正區市民大道三段8號", "name": "光華數位新天地6F東男", "type": "廁所", "lat": 25.045796 }, { "lon": 121.531773, "address": "臺北市中正區市民大道三段8號", "name": "光華數位新天地6F西女", "type": "廁所", "lat": 25.045796 }, { "lon": 121.531773, "address": "臺北市中正區市民大道三段8號", "name": "光華數位新天地6F西無障礙", "type": "廁所", "lat": 25.045796 }, { "lon": 121.531773, "address": "臺北市中正區市民大道三段8號", "name": "光華數位新天地6F西男", "type": "廁所", "lat": 25.045796 }, { "lon": 121.531773, "address": "臺北市中正區市民大道三段8號", "name": "光華數位新天地B1東女", "type": "廁所", "lat": 25.045796 }, { "lon": 121.531773, "address": "臺北市中正區市民大道三段8號", "name": "光華數位新天地B1東男", "type": "廁所", "lat": 25.045796 }, { "lon": 121.5294, "address": "臺北市中正區八德路一段1號 ", "name": "光點華山電影館女", "type": "廁所", "lat": 25.04413 }, { "lon": 121.5294, "address": "臺北市中正區八德路一段1號 ", "name": "光點華山電影館無障礙", "type": "廁所", "lat": 25.04413 }, { "lon": 121.5294, "address": "臺北市中正區八德路一段1號 ", "name": "光點華山電影館男", "type": "廁所", "lat": 25.04413 }, { "lon": 121.538991, "address": "臺北市大安區信義路三段107號", "name": "公有信義市場男-女", "type": "廁所", "lat": 25.033644 }, { "lon": 121.53632, "address": "臺北市中山區八德路二段108之1號", "name": "公有八德市場男女", "type": "廁所", "lat": 25.045876 }, { "lon": 121.541063, "address": "臺北市大安區瑞安街75號", "name": "公有安東市場男-女", "type": "廁所", "lat": 25.028242 }, { "lon": 121.530902, "address": "臺北市中正區濟南路二段46號", "name": "公有幸安市場1F女", "type": "廁所", "lat": 25.040316 }, { "lon": 121.530902, "address": "臺北市中正區濟南路二段46號", "name": "公有幸安市場1F無障礙", "type": "廁所", "lat": 25.040316 }, { "lon": 121.530902, "address": "臺北市中正區濟南路二段46號", "name": "公有幸安市場1F男", "type": "廁所", "lat": 25.040316 }, { "lon": 121.530902, "address": "臺北市中正區濟南路二段46號", "name": "公有幸安市場B1女", "type": "廁所", "lat": 25.040316 }, { "lon": 121.530902, "address": "臺北市中正區濟南路二段46號", "name": "公有幸安市場B1男", "type": "廁所", "lat": 25.040316 }, { "lon": 121.532503, "address": "臺北市大安區新生南路一段134之1號", "name": "公有新生市場男-女", "type": "廁所", "lat": 25.036616 }, { "lon": 121.526638, "address": "臺北市中正區信義路二段81號", "name": "公有東門市場無障礙", "type": "廁所", "lat": 25.034572 }, { "lon": 121.527013, "address": "臺北市中正區信義路二段81號", "name": "公有東門市場男-女", "type": "廁所", "lat": 25.034291 }, { "lon": 121.524834, "address": "臺北市中正區忠孝東路一段108號", "name": "公有華山市場1F女", "type": "廁所", "lat": 25.044194 }, { "lon": 121.524834, "address": "臺北市中正區忠孝東路一段108號", "name": "公有華山市場1F無障礙", "type": "廁所", "lat": 25.044194 }, { "lon": 121.524834, "address": "臺北市中正區忠孝東路一段108號", "name": "公有華山市場1F男", "type": "廁所", "lat": 25.044194 }, { "lon": 121.524834, "address": "臺北市中正區忠孝東路一段108號", "name": "公有華山市場2F女", "type": "廁所", "lat": 25.044194 }, { "lon": 121.524834, "address": "臺北市中正區忠孝東路一段108號", "name": "公有華山市場2F無障礙", "type": "廁所", "lat": 25.044194 }, { "lon": 121.524834, "address": "臺北市中正區忠孝東路一段108號", "name": "公有華山市場2F男", "type": "廁所", "lat": 25.044194 }, { "lon": 121.529543, "address": "臺北市大安區永康街58號", "name": "公有錦安市場男-女", "type": "廁所", "lat": 25.028495 }, { "lon": 121.537888, "address": "臺北市大安區建國南路二段75之1號", "name": "勝利加油站男女", "type": "廁所", "lat": 25.030848 }, { "lon": 121.53951, "address": "臺北市大安區忠孝東路三段217巷1弄4號1樓", "name": "台灣知多家建國店男女", "type": "廁所", "lat": 25.042425 }, { "lon": 121.526363, "address": "臺北市中正區忠孝東路一段174號", "name": "吉野家忠孝東路店男女", "type": "廁所", "lat": 25.043907 }, { "lon": 121.52735, "address": "臺北市大安區金山南路二段9號", "name": "吉野家東門店男女", "type": "廁所", "lat": 25.03405 }, { "lon": 121.52507, "address": "臺北市中正區忠孝東路一段23號", "name": "善導寺東側1樓女", "type": "廁所", "lat": 25.040665 }, { "lon": 121.52507, "address": "臺北市中正區忠孝東路一段23號", "name": "善導寺東側1樓無障礙", "type": "廁所", "lat": 25.040665 }, { "lon": 121.52507, "address": "臺北市中正區忠孝東路一段23號", "name": "善導寺東側1樓男", "type": "廁所", "lat": 25.040665 }, { "lon": 121.52507, "address": "臺北市中正區忠孝東路一段23號", "name": "善導寺西側1樓女", "type": "廁所", "lat": 25.040665 }, { "lon": 121.52507, "address": "臺北市中正區忠孝東路一段23號", "name": "善導寺西側1樓無障礙", "type": "廁所", "lat": 25.040665 }, { "lon": 121.52507, "address": "臺北市中正區忠孝東路一段23號", "name": "善導寺西側1樓男", "type": "廁所", "lat": 25.040665 }, { "lon": 121.523288, "address": "臺北市中正區中山南路21號", "name": "國立中正紀念堂5號女", "type": "廁所", "lat": 25.034519 }, { "lon": 121.523288, "address": "臺北市中正區中山南路21號", "name": "國立中正紀念堂5號男", "type": "廁所", "lat": 25.034519 }, { "lon": 121.523288, "address": "臺北市中正區中山南路21號", "name": "國立中正紀念堂展覽館女", "type": "廁所", "lat": 25.034519 }, { "lon": 121.523288, "address": "臺北市中正區中山南路21號", "name": "國立中正紀念堂展覽館男", "type": "廁所", "lat": 25.034519 }, { "lon": 121.523385, "address": "臺北市大安區臥龍街64巷8號邊", "name": "大安16號男女", "type": "廁所", "lat": 25.031852 }, { "lon": 121.541836, "address": "臺北市大安區瑞安街208巷47弄39號慈湄宮旁", "name": "大安2號男女", "type": "廁所", "lat": 25.02994 }, { "lon": 121.533051, "address": "臺北市大安區仁愛路三段2號", "name": "大安分局女", "type": "廁所", "lat": 25.037899 }, { "lon": 121.533051, "address": "臺北市大安區仁愛路三段2號", "name": "大安分局男", "type": "廁所", "lat": 25.037899 }, { "lon": 121.535346, "address": "臺北市大安區新生南路、和平東路、信義路、建國南路", "name": "大安森林公園2號音樂臺南側女", "type": "廁所", "lat": 25.029572 }, { "lon": 121.535346, "address": "臺北市大安區新生南路、和平東路、信義路、建國南路", "name": "大安森林公園2號音樂臺南側男", "type": "廁所", "lat": 25.029572 }, { "lon": 121.534478, "address": "臺北市大安區新生南路、和平東路、信義路、建國南路", "name": "大安森林公園3號音樂臺北側女", "type": "廁所", "lat": 25.030654 }, { "lon": 121.534478, "address": "臺北市大安區新生南路、和平東路、信義路、建國南路", "name": "大安森林公園3號音樂臺北側男", "type": "廁所", "lat": 25.030654 }, { "lon": 121.534909, "address": "臺北市大安區新生南路、和平東路、信義路、建國南路", "name": "大安森林公園4號信義路女", "type": "廁所", "lat": 25.032548 }, { "lon": 121.534909, "address": "臺北市大安區新生南路、和平東路、信義路、建國南路", "name": "大安森林公園4號信義路男", "type": "廁所", "lat": 25.032548 }, { "lon": 121.537185, "address": "臺北市大安區新生南路、和平東路、信義路、建國南路", "name": "大安森林公園5號建國南路女", "type": "廁所", "lat": 25.028902 }, { "lon": 121.537185, "address": "臺北市大安區新生南路、和平東路、信義路、建國南路", "name": "大安森林公園5號建國南路男", "type": "廁所", "lat": 25.028902 }, { "lon": 121.537041, "address": "臺北市大安區新生南路、和平東路、信義路、建國南路", "name": "大安森林公園6號建國南路女", "type": "廁所", "lat": 25.032209 }, { "lon": 121.537041, "address": "臺北市大安區新生南路、和平東路、信義路、建國南路", "name": "大安森林公園6號建國南路男", "type": "廁所", "lat": 25.032209 }, { "lon": 121.537419, "address": "臺北市大安區建國南路二段2號地下一樓", "name": "大安森林公園地下停車場男女", "type": "廁所", "lat": 25.032873 }, { "lon": 121.538078, "address": "臺北市大安區仁愛路與建國南路口高架橋下", "name": "大安花市3號男女", "type": "廁所", "lat": 25.037053 }, { "lon": 121.541038, "address": "臺北市大安區信義路三段166巷6弄12號地下", "name": "大安高工地下停車場男女", "type": "廁所", "lat": 25.032703 }, { "lon": 121.542606, "address": "臺北市中山區八德路二段308號B2(CITY LINK大樓)", "name": "大潤發中崙店B2女", "type": "廁所", "lat": 25.047119 }, { "lon": 121.542606, "address": "臺北市中山區八德路二段308號B2(CITY LINK大樓)", "name": "大潤發中崙店B2男", "type": "廁所", "lat": 25.047119 }, { "lon": 121.542606, "address": "臺北市中山區八德路二段308號B2(CITY LINK大樓)", "name": "大潤發中崙店B3女", "type": "廁所", "lat": 25.047119 }, { "lon": 121.542606, "address": "臺北市中山區八德路二段308號B2(CITY LINK大樓)", "name": "大潤發中崙店B3男", "type": "廁所", "lat": 25.047119 }, { "lon": 121.542606, "address": "臺北市中山區八德路二段308號B2(CITY LINK大樓)", "name": "大潤發中崙店B4女", "type": "廁所", "lat": 25.047119 }, { "lon": 121.542606, "address": "臺北市中山區八德路二段308號B2(CITY LINK大樓)", "name": "大潤發中崙店B4男", "type": "廁所", "lat": 25.047119 }, { "lon": 121.542627, "address": "臺北市大安區敦化南路一段246號", "name": "太平洋崇光百貨敦化分館2F女", "type": "廁所", "lat": 25.036626 }, { "lon": 121.542627, "address": "臺北市大安區敦化南路一段246號", "name": "太平洋崇光百貨敦化分館2F男", "type": "廁所", "lat": 25.036626 }, { "lon": 121.542627, "address": "臺北市大安區敦化南路一段246號", "name": "太平洋崇光百貨敦化分館3F女", "type": "廁所", "lat": 25.036626 }, { "lon": 121.542627, "address": "臺北市大安區敦化南路一段246號", "name": "太平洋崇光百貨敦化分館3F男", "type": "廁所", "lat": 25.036626 }, { "lon": 121.542627, "address": "臺北市大安區敦化南路一段246號", "name": "太平洋崇光百貨敦化分館4F女", "type": "廁所", "lat": 25.036626 }, { "lon": 121.542627, "address": "臺北市大安區敦化南路一段246號", "name": "太平洋崇光百貨敦化分館4F男", "type": "廁所", "lat": 25.036626 }, { "lon": 121.542627, "address": "臺北市大安區敦化南路一段246號", "name": "太平洋崇光百貨敦化分館5F女", "type": "廁所", "lat": 25.036626 }, { "lon": 121.542627, "address": "臺北市大安區敦化南路一段246號", "name": "太平洋崇光百貨敦化分館5F男", "type": "廁所", "lat": 25.036626 }, { "lon": 121.542627, "address": "臺北市大安區敦化南路一段246號", "name": "太平洋崇光百貨敦化分館B1女", "type": "廁所", "lat": 25.036626 }, { "lon": 121.542627, "address": "臺北市大安區敦化南路一段246號", "name": "太平洋崇光百貨敦化分館B1男", "type": "廁所", "lat": 25.036626 }, { "lon": 121.542627, "address": "臺北市大安區敦化南路一段246號", "name": "太平洋崇光百貨敦化分館B2女", "type": "廁所", "lat": 25.036626 }, { "lon": 121.542627, "address": "臺北市大安區敦化南路一段246號", "name": "太平洋崇光百貨敦化分館B2男", "type": "廁所", "lat": 25.036626 }, { "lon": 121.539473, "address": "臺北市中山區市民大道建國南路復興南路段", "name": "市民大道地下停車場建復段B1男女", "type": "廁所", "lat": 25.044539 }, { "lon": 121.527482, "address": "臺北市中山區林森北路-金山北路間地下", "name": "市民大道地下停車場林金段新生長安6號出口", "type": "廁所", "lat": 25.046906 }, { "lon": 121.527482, "address": "臺北市中山區林森北路-金山北路間地下", "name": "市民大道地下停車場林金段林森忠孝東3號出口", "type": "廁所", "lat": 25.046906 }, { "lon": 121.527482, "address": "臺北市中山區林森北路-金山北路間地下", "name": "市民大道地下停車場林金段林森長安4號出口", "type": "廁所", "lat": 25.046906 }, { "lon": 121.527482, "address": "臺北市中山區林森北路-金山北路間地下", "name": "市民大道地下停車場林金段林森長安東1號出口", "type": "廁所", "lat": 25.046906 }, { "lon": 121.524885, "address": "臺北市中正區徐州路46號", "name": "市長官邸藝文沙龍女", "type": "廁所", "lat": 25.040298 }, { "lon": 121.524885, "address": "臺北市中正區徐州路46號", "name": "市長官邸藝文沙龍無障礙", "type": "廁所", "lat": 25.040298 }, { "lon": 121.524885, "address": "臺北市中正區徐州路46號", "name": "市長官邸藝文沙龍男", "type": "廁所", "lat": 25.040298 }, { "lon": 121.537761, "address": "臺北市大安區建國橋下仁愛路-濟南路間", "name": "建國橋下仁愛濟南段停車場(假日玉市)男女", "type": "廁所", "lat": 25.039554 }, { "lon": 121.536435, "address": "臺北市大安區建國南路一段三十四號", "name": "建國計程車服務站女", "type": "廁所", "lat": 25.044232 }, { "lon": 121.536435, "address": "臺北市大安區建國南路一段三十四號", "name": "建國計程車服務站男", "type": "廁所", "lat": 25.044232 }, { "lon": 121.527132, "address": "臺北市中正區忠孝東路二段10號", "name": "忠孝東路派出所男女", "type": "廁所", "lat": 25.043677 }, { "lon": 121.5337, "address": "臺北市大安區信義路4段212之1號B1", "name": "捷運信義安和站男", "type": "廁所", "lat": 25.033418 }, { "lon": 121.523176, "address": "臺北市中正區忠孝西路一段58號", "name": "捷運善導寺站女", "type": "廁所", "lat": 25.044803 }, { "lon": 121.523176, "address": "臺北市中正區忠孝西路一段58號", "name": "捷運善導寺站男", "type": "廁所", "lat": 25.044803 }, { "lon": 121.5337, "address": "臺北市大安區信義路3段100號B1", "name": "捷運大安森林公園站東女", "type": "廁所", "lat": 25.033418 }, { "lon": 121.5337, "address": "臺北市大安區信義路3段100號B1", "name": "捷運大安森林公園站東親子", "type": "廁所", "lat": 25.033418 }, { "lon": 121.5337, "address": "臺北市大安區信義路3段100號B1", "name": "捷運大安森林公園站西女", "type": "廁所", "lat": 25.033418 }, { "lon": 121.5337, "address": "臺北市大安區信義路3段100號B1", "name": "捷運大安森林公園站西男", "type": "廁所", "lat": 25.033418 }, { "lon": 121.5337, "address": "臺北市大安區信義路3段100號B1", "name": "捷運大安森林公園站西親子", "type": "廁所", "lat": 25.033418 }, { "lon": 121.533107, "address": "臺北市大安區新生南路一段67號B1", "name": "捷運忠孝新生站(新蘆線)女", "type": "廁所", "lat": 25.042023 }, { "lon": 121.533107, "address": "臺北市大安區新生南路一段67號B1", "name": "捷運忠孝新生站(新蘆線)無障礙", "type": "廁所", "lat": 25.042023 }, { "lon": 121.533107, "address": "臺北市大安區新生南路一段67號B1", "name": "捷運忠孝新生站(新蘆線)男", "type": "廁所", "lat": 25.042023 }, { "lon": 121.533107, "address": "臺北市大安區新生南路一段67號", "name": "捷運忠孝新生站女", "type": "廁所", "lat": 25.042023 }, { "lon": 121.533107, "address": "臺北市大安區新生南路一段67號", "name": "捷運忠孝新生站男", "type": "廁所", "lat": 25.042023 }, { "lon": 121.529269, "address": "臺北市大安區信義路二段166號", "name": "捷運東門站付費區女", "type": "廁所", "lat": 25.033601 }, { "lon": 121.529269, "address": "臺北市大安區信義路二段166號", "name": "捷運東門站付費區男", "type": "廁所", "lat": 25.033601 }, { "lon": 121.529269, "address": "臺北市大安區信義路二段166號", "name": "捷運東門站親子廁所", "type": "廁所", "lat": 25.033601 }, { "lon": 121.529269, "address": "臺北市大安區信義路二段166號", "name": "捷運東門站非付費區女", "type": "廁所", "lat": 25.033601 }, { "lon": 121.529269, "address": "臺北市大安區信義路二段166號", "name": "捷運東門站非付費區男", "type": "廁所", "lat": 25.033601 }, { "lon": 121.526341, "address": "臺北市中正區忠孝東路一段178號", "name": "摩斯漢堡善導寺店 男女", "type": "廁所", "lat": 25.043945 }, { "lon": 121.532047, "address": "臺北市中正區忠孝東路二段132號1樓", "name": "摩斯漢堡忠孝2店男女", "type": "廁所", "lat": 25.042449 }, { "lon": 121.533076, "address": " 臺北市大安區新生南路一段161之1&9號1樓 ", "name": "摩斯漢堡新生店男女", "type": "廁所", "lat": 25.03449 }, { "lon": 121.526792, "address": "臺北市大安區金山南路二段121號", "name": "摩斯漢堡金山店男女", "type": "廁所", "lat": 25.030784 }, { "lon": 121.525838, "address": "臺北市中正區忠孝東路1段41號", "name": "文化大學忠孝館10F男女", "type": "廁所", "lat": 25.044525 }, { "lon": 121.525838, "address": "臺北市中正區忠孝東路1段41號", "name": "文化大學忠孝館11F男女", "type": "廁所", "lat": 25.044525 }, { "lon": 121.525838, "address": "臺北市中正區忠孝東路1段41號", "name": "文化大學忠孝館2F女", "type": "廁所", "lat": 25.044525 }, { "lon": 121.525838, "address": "臺北市中正區忠孝東路1段41號", "name": "文化大學忠孝館4F女", "type": "廁所", "lat": 25.044525 }, { "lon": 121.525838, "address": "臺北市中正區忠孝東路1段41號", "name": "文化大學忠孝館5F女", "type": "廁所", "lat": 25.044525 }, { "lon": 121.525838, "address": "臺北市中正區忠孝東路1段41號", "name": "文化大學忠孝館6F男", "type": "廁所", "lat": 25.044525 }, { "lon": 121.525838, "address": "臺北市中正區忠孝東路1段41號", "name": "文化大學忠孝館7F女", "type": "廁所", "lat": 25.044525 }, { "lon": 121.525838, "address": "臺北市中正區忠孝東路1段41號", "name": "文化大學忠孝館8F男", "type": "廁所", "lat": 25.044525 }, { "lon": 121.525838, "address": "臺北市中正區忠孝東路1段41號", "name": "文化大學忠孝館9F男女", "type": "廁所", "lat": 25.044525 }, { "lon": 121.525838, "address": "臺北市中正區忠孝東路1段41號", "name": "文化大學忠孝館B1女", "type": "廁所", "lat": 25.044525 }, { "lon": 121.525838, "address": "臺北市中正區忠孝東路1段41號", "name": "文化大學忠孝館B1無障礙", "type": "廁所", "lat": 25.044525 }, { "lon": 121.525838, "address": "臺北市中正區忠孝東路1段41號", "name": "文化大學忠孝館B1男", "type": "廁所", "lat": 25.044525 }, { "lon": 121.534156, "address": "臺北市大安區仁愛路三段18號", "name": "新生南路派出所男女", "type": "廁所", "lat": 25.037729 }, { "lon": 121.530581, "address": "臺北市大安區永康街8號", "name": "永康公園男女", "type": "廁所", "lat": 25.032743 }, { "lon": 121.528489, "address": "臺北市大安區金華街199巷5號", "name": "淡江大學城區部1F女", "type": "廁所", "lat": 25.031189 }, { "lon": 121.528489, "address": "臺北市大安區金華街199巷5號", "name": "淡江大學城區部1F男", "type": "廁所", "lat": 25.031189 }, { "lon": 121.528489, "address": "臺北市大安區金華街199巷5號", "name": "淡江大學城區部2F女", "type": "廁所", "lat": 25.031189 }, { "lon": 121.528489, "address": "臺北市大安區金華街199巷5號", "name": "淡江大學城區部2F男", "type": "廁所", "lat": 25.031189 }, { "lon": 121.528489, "address": "臺北市大安區金華街199巷5號", "name": "淡江大學城區部3F女", "type": "廁所", "lat": 25.031189 }, { "lon": 121.528489, "address": "臺北市大安區金華街199巷5號", "name": "淡江大學城區部3F男", "type": "廁所", "lat": 25.031189 }, { "lon": 121.528489, "address": "臺北市大安區金華街199巷5號", "name": "淡江大學城區部4F女", "type": "廁所", "lat": 25.031189 }, { "lon": 121.528489, "address": "臺北市大安區金華街199巷5號", "name": "淡江大學城區部4F男", "type": "廁所", "lat": 25.031189 }, { "lon": 121.528489, "address": "臺北市大安區金華街199巷5號", "name": "淡江大學城區部5F女", "type": "廁所", "lat": 25.031189 }, { "lon": 121.528489, "address": "臺北市大安區金華街199巷5號", "name": "淡江大學城區部5F男", "type": "廁所", "lat": 25.031189 }, { "lon": 121.528489, "address": "臺北市大安區金華街199巷5號", "name": "淡江大學城區部6F女", "type": "廁所", "lat": 25.031189 }, { "lon": 121.528489, "address": "臺北市大安區金華街199巷5號", "name": "淡江大學城區部6F男", "type": "廁所", "lat": 25.031189 }, { "lon": 121.528489, "address": "臺北市大安區金華街199巷5號", "name": "淡江大學城區部新2F女", "type": "廁所", "lat": 25.031189 }, { "lon": 121.528489, "address": "臺北市大安區金華街199巷5號", "name": "淡江大學城區部新2F男", "type": "廁所", "lat": 25.031189 }, { "lon": 121.528489, "address": "臺北市大安區金華街199巷5號", "name": "淡江大學城區部新3F女", "type": "廁所", "lat": 25.031189 }, { "lon": 121.528489, "address": "臺北市大安區金華街199巷5號", "name": "淡江大學城區部新3F男", "type": "廁所", "lat": 25.031189 }, { "lon": 121.528489, "address": "臺北市大安區金華街199巷5號", "name": "淡江大學城區部新5F女", "type": "廁所", "lat": 25.031189 }, { "lon": 121.528489, "address": "臺北市大安區金華街199巷5號", "name": "淡江大學城區部新5F男", "type": "廁所", "lat": 25.031189 }, { "lon": 121.538936, "address": "臺北市大安區信義路三段122號", "name": "漢堡王信義店男女", "type": "廁所", "lat": 25.03325 }, { "lon": 121.531384, "address": "臺北市中正區八德路一段31號", "name": "漢堡王光華店女", "type": "廁所", "lat": 25.044179 }, { "lon": 121.531384, "address": "臺北市中正區八德路一段31號", "name": "漢堡王光華店男", "type": "廁所", "lat": 25.044179 }, { "lon": 121.542678, "address": "臺北市大安區仁愛路三段160號", "name": "福華飯店1F女", "type": "廁所", "lat": 25.037782 }, { "lon": 121.542678, "address": "臺北市大安區仁愛路三段160號", "name": "福華飯店1F男", "type": "廁所", "lat": 25.037782 }, { "lon": 121.542678, "address": "臺北市大安區仁愛路三段160號", "name": "福華飯店2F女", "type": "廁所", "lat": 25.037782 }, { "lon": 121.542678, "address": "臺北市大安區仁愛路三段160號", "name": "福華飯店2F男", "type": "廁所", "lat": 25.037782 }, { "lon": 121.542678, "address": "臺北市大安區仁愛路三段160號", "name": "福華飯店3F女", "type": "廁所", "lat": 25.037782 }, { "lon": 121.542678, "address": "臺北市大安區仁愛路三段160號", "name": "福華飯店3F男", "type": "廁所", "lat": 25.037782 }, { "lon": 121.542678, "address": "臺北市大安區仁愛路三段160號", "name": "福華飯店4F女", "type": "廁所", "lat": 25.037782 }, { "lon": 121.542678, "address": "臺北市大安區仁愛路三段160號", "name": "福華飯店4F男", "type": "廁所", "lat": 25.037782 }, { "lon": 121.542678, "address": "臺北市大安區仁愛路三段160號", "name": "福華飯店B1女", "type": "廁所", "lat": 25.037782 }, { "lon": 121.542678, "address": "臺北市大安區仁愛路三段160號", "name": "福華飯店B1男", "type": "廁所", "lat": 25.037782 }, { "lon": 121.542678, "address": "臺北市大安區仁愛路三段160號", "name": "福華飯店B2女", "type": "廁所", "lat": 25.037782 }, { "lon": 121.542678, "address": "臺北市大安區仁愛路三段160號", "name": "福華飯店B2男", "type": "廁所", "lat": 25.037782 }, { "lon": 121.528948, "address": "臺北市中正區仁愛路二段39號39-1號", "name": "統一超商臺北市仁金門市男女", "type": "廁所", "lat": 25.038452 }, { "lon": 121.539648, "address": "臺北市大安區忠孝東路三段217巷1弄2號", "name": "統一超商臺北市佑安門市男女", "type": "廁所", "lat": 25.042417 }, { "lon": 121.541493, "address": "臺北市大安區忠孝東路三段249號", "name": "統一超商臺北市建忠門市男女", "type": "廁所", "lat": 25.041771 }, { "lon": 121.530537, "address": "臺北市中正區忠孝東路二段100號1樓", "name": "統一超商臺北市忠聯門市男女", "type": "廁所", "lat": 25.042845 }, { "lon": 121.541493, "address": "臺北市大安區忠孝東路三段249號", "name": "統一超商臺北市松高門市男女", "type": "廁所", "lat": 25.041771 }, { "lon": 121.531172, "address": "臺北市中正區濟南路二段50號", "name": "統一超商臺北市濟新門市男女", "type": "廁所", "lat": 25.040321 }, { "lon": 121.525559, "address": "臺北市中正區紹興北街37號1樓", "name": "統一超商臺北市紹興門市男女", "type": "廁所", "lat": 25.045466 }, { "lon": 121.527801, "address": "臺北市中正區臨沂街74號76號", "name": "統一超商臺北市臨沂門市男女", "type": "廁所", "lat": 25.034531 }, { "lon": 121.525618, "address": "臺北市中正區忠孝東路一段138號", "name": "統一超商臺北市華山門市男女", "type": "廁所", "lat": 25.044106 }, { "lon": 121.537053, "address": "臺北市中山區市民大道三段83號", "name": "美麗信花園酒店女(無障礙)", "type": "廁所", "lat": 25.04497 }, { "lon": 121.537053, "address": "臺北市中山區市民大道三段83號", "name": "美麗信花園酒店無障礙", "type": "廁所", "lat": 25.04497 }, { "lon": 121.537053, "address": "臺北市中山區市民大道三段83號", "name": "美麗信花園酒店男", "type": "廁所", "lat": 25.04497 }, { "lon": 121.52536, "address": "臺北市中正區濟南路一段321號", "name": "臺北商業大學五育1右女", "type": "廁所", "lat": 25.041961 }, { "lon": 121.52536, "address": "臺北市中正區濟南路一段321號", "name": "臺北商業大學五育1右男", "type": "廁所", "lat": 25.041961 }, { "lon": 121.52536, "address": "臺北市中正區濟南路一段321號", "name": "臺北商業大學五育1左女", "type": "廁所", "lat": 25.041961 }, { "lon": 121.52536, "address": "臺北市中正區濟南路一段321號", "name": "臺北商業大學五育1左男", "type": "廁所", "lat": 25.041961 }, { "lon": 121.52536, "address": "臺北市中正區濟南路一段321號", "name": "臺北商業大學五育2右女", "type": "廁所", "lat": 25.041961 }, { "lon": 121.52536, "address": "臺北市中正區濟南路一段321號", "name": "臺北商業大學五育2右男", "type": "廁所", "lat": 25.041961 }, { "lon": 121.52536, "address": "臺北市中正區濟南路一段321號", "name": "臺北商業大學五育2左女", "type": "廁所", "lat": 25.041961 }, { "lon": 121.52536, "address": "臺北市中正區濟南路一段321號", "name": "臺北商業大學五育2左男", "type": "廁所", "lat": 25.041961 }, { "lon": 121.52536, "address": "臺北市中正區濟南路一段321號", "name": "臺北商業大學五育3右女", "type": "廁所", "lat": 25.041961 }, { "lon": 121.52536, "address": "臺北市中正區濟南路一段321號", "name": "臺北商業大學五育3右男", "type": "廁所", "lat": 25.041961 }, { "lon": 121.52536, "address": "臺北市中正區濟南路一段321號", "name": "臺北商業大學五育3左女", "type": "廁所", "lat": 25.041961 }, { "lon": 121.52536, "address": "臺北市中正區濟南路一段321號", "name": "臺北商業大學五育3左男", "type": "廁所", "lat": 25.041961 }, { "lon": 121.52536, "address": "臺北市中正區濟南路一段321號", "name": "臺北商業大學五育4右女", "type": "廁所", "lat": 25.041961 }, { "lon": 121.52536, "address": "臺北市中正區濟南路一段321號", "name": "臺北商業大學五育4右男", "type": "廁所", "lat": 25.041961 }, { "lon": 121.52536, "address": "臺北市中正區濟南路一段321號", "name": "臺北商業大學五育4左女", "type": "廁所", "lat": 25.041961 }, { "lon": 121.52536, "address": "臺北市中正區濟南路一段321號", "name": "臺北商業大學五育4左男", "type": "廁所", "lat": 25.041961 }, { "lon": 121.52536, "address": "臺北市中正區濟南路一段321號", "name": "臺北商業大學五育5右女", "type": "廁所", "lat": 25.041961 }, { "lon": 121.52536, "address": "臺北市中正區濟南路一段321號", "name": "臺北商業大學五育5右男", "type": "廁所", "lat": 25.041961 }, { "lon": 121.52536, "address": "臺北市中正區濟南路一段321號", "name": "臺北商業大學五育5左女", "type": "廁所", "lat": 25.041961 }, { "lon": 121.52536, "address": "臺北市中正區濟南路一段321號", "name": "臺北商業大學五育5左男", "type": "廁所", "lat": 25.041961 }, { "lon": 121.52536, "address": "臺北市中正區濟南路一段321號", "name": "臺北商業大學五育6右女", "type": "廁所", "lat": 25.041961 }, { "lon": 121.52536, "address": "臺北市中正區濟南路一段321號", "name": "臺北商業大學五育6右男", "type": "廁所", "lat": 25.041961 }, { "lon": 121.52536, "address": "臺北市中正區濟南路一段321號", "name": "臺北商業大學五育6左女", "type": "廁所", "lat": 25.041961 }, { "lon": 121.52536, "address": "臺北市中正區濟南路一段321號", "name": "臺北商業大學五育6左男", "type": "廁所", "lat": 25.041961 }, { "lon": 121.52536, "address": "臺北市中正區濟南路一段321號", "name": "臺北商業大學五育7右女", "type": "廁所", "lat": 25.041961 }, { "lon": 121.52536, "address": "臺北市中正區濟南路一段321號", "name": "臺北商業大學五育7右男", "type": "廁所", "lat": 25.041961 }, { "lon": 121.52536, "address": "臺北市中正區濟南路一段321號", "name": "臺北商業大學五育7左女", "type": "廁所", "lat": 25.041961 }, { "lon": 121.52536, "address": "臺北市中正區濟南路一段321號", "name": "臺北商業大學五育7左男", "type": "廁所", "lat": 25.041961 }, { "lon": 121.52536, "address": "臺北市中正區濟南路一段321號", "name": "臺北商業大學五育8右女", "type": "廁所", "lat": 25.041961 }, { "lon": 121.52536, "address": "臺北市中正區濟南路一段321號", "name": "臺北商業大學五育8右男", "type": "廁所", "lat": 25.041961 }, { "lon": 121.52536, "address": "臺北市中正區濟南路一段321號", "name": "臺北商業大學五育8左女", "type": "廁所", "lat": 25.041961 }, { "lon": 121.52536, "address": "臺北市中正區濟南路一段321號", "name": "臺北商業大學五育8左男", "type": "廁所", "lat": 25.041961 }, { "lon": 121.52536, "address": "臺北市中正區濟南路一段321號", "name": "臺北商業大學五育B1女", "type": "廁所", "lat": 25.041961 }, { "lon": 121.52536, "address": "臺北市中正區濟南路一段321號", "name": "臺北商業大學五育B1男", "type": "廁所", "lat": 25.041961 }, { "lon": 121.52536, "address": "臺北市中正區濟南路一段321號", "name": "臺北商業大學六藝2F女", "type": "廁所", "lat": 25.041961 }, { "lon": 121.52536, "address": "臺北市中正區濟南路一段321號", "name": "臺北商業大學六藝2F男", "type": "廁所", "lat": 25.041961 }, { "lon": 121.52536, "address": "臺北市中正區濟南路一段321號", "name": "臺北商業大學六藝3F女", "type": "廁所", "lat": 25.041961 }, { "lon": 121.52536, "address": "臺北市中正區濟南路一段321號", "name": "臺北商業大學六藝3F男", "type": "廁所", "lat": 25.041961 }, { "lon": 121.52536, "address": "臺北市中正區濟南路一段321號", "name": "臺北商業大學六藝4F女", "type": "廁所", "lat": 25.041961 }, { "lon": 121.52536, "address": "臺北市中正區濟南路一段321號", "name": "臺北商業大學六藝4F男", "type": "廁所", "lat": 25.041961 }, { "lon": 121.52536, "address": "臺北市中正區濟南路一段321號", "name": "臺北商業大學六藝5F女", "type": "廁所", "lat": 25.041961 }, { "lon": 121.52536, "address": "臺北市中正區濟南路一段321號", "name": "臺北商業大學六藝5F男", "type": "廁所", "lat": 25.041961 }, { "lon": 121.52536, "address": "臺北市中正區濟南路一段321號", "name": "臺北商業大學圖書館1F", "type": "廁所", "lat": 25.041961 }, { "lon": 121.52536, "address": "臺北市中正區濟南路一段321號", "name": "臺北商業大學圖書館2F", "type": "廁所", "lat": 25.041961 }, { "lon": 121.52536, "address": "臺北市中正區濟南路一段321號", "name": "臺北商業大學圖書館3F", "type": "廁所", "lat": 25.041961 }, { "lon": 121.52536, "address": "臺北市中正區濟南路一段321號", "name": "臺北商業大學圖書館4F", "type": "廁所", "lat": 25.041961 }, { "lon": 121.52536, "address": "臺北市中正區濟南路一段321號", "name": "臺北商業大學圖書館6F", "type": "廁所", "lat": 25.041961 }, { "lon": 121.52536, "address": "臺北市中正區濟南路一段321號", "name": "臺北商業大學圖書館7F", "type": "廁所", "lat": 25.041961 }, { "lon": 121.52536, "address": "臺北市中正區濟南路一段321號", "name": "臺北商業大學承羲10F女", "type": "廁所", "lat": 25.041961 }, { "lon": 121.52536, "address": "臺北市中正區濟南路一段321號", "name": "臺北商業大學承羲10F男", "type": "廁所", "lat": 25.041961 }, { "lon": 121.52536, "address": "臺北市中正區濟南路一段321號", "name": "臺北商業大學承羲1F女", "type": "廁所", "lat": 25.041961 }, { "lon": 121.52536, "address": "臺北市中正區濟南路一段321號", "name": "臺北商業大學承羲1F男", "type": "廁所", "lat": 25.041961 }, { "lon": 121.52536, "address": "臺北市中正區濟南路一段321號", "name": "臺北商業大學承羲2F女", "type": "廁所", "lat": 25.041961 }, { "lon": 121.52536, "address": "臺北市中正區濟南路一段321號", "name": "臺北商業大學承羲2F男", "type": "廁所", "lat": 25.041961 }, { "lon": 121.52536, "address": "臺北市中正區濟南路一段321號", "name": "臺北商業大學承羲3F女", "type": "廁所", "lat": 25.041961 }, { "lon": 121.52536, "address": "臺北市中正區濟南路一段321號", "name": "臺北商業大學承羲3F男", "type": "廁所", "lat": 25.041961 }, { "lon": 121.52536, "address": "臺北市中正區濟南路一段321號", "name": "臺北商業大學承羲4F女", "type": "廁所", "lat": 25.041961 }, { "lon": 121.52536, "address": "臺北市中正區濟南路一段321號", "name": "臺北商業大學承羲4F男", "type": "廁所", "lat": 25.041961 }, { "lon": 121.52536, "address": "臺北市中正區濟南路一段321號", "name": "臺北商業大學承羲5F女", "type": "廁所", "lat": 25.041961 }, { "lon": 121.52536, "address": "臺北市中正區濟南路一段321號", "name": "臺北商業大學承羲5F男", "type": "廁所", "lat": 25.041961 }, { "lon": 121.52536, "address": "臺北市中正區濟南路一段321號", "name": "臺北商業大學承羲6F女", "type": "廁所", "lat": 25.041961 }, { "lon": 121.52536, "address": "臺北市中正區濟南路一段321號", "name": "臺北商業大學承羲6F男", "type": "廁所", "lat": 25.041961 }, { "lon": 121.52536, "address": "臺北市中正區濟南路一段321號", "name": "臺北商業大學承羲7F女", "type": "廁所", "lat": 25.041961 }, { "lon": 121.52536, "address": "臺北市中正區濟南路一段321號", "name": "臺北商業大學承羲7F男", "type": "廁所", "lat": 25.041961 }, { "lon": 121.52536, "address": "臺北市中正區濟南路一段321號", "name": "臺北商業大學承羲8F女", "type": "廁所", "lat": 25.041961 }, { "lon": 121.52536, "address": "臺北市中正區濟南路一段321號", "name": "臺北商業大學承羲8F男", "type": "廁所", "lat": 25.041961 }, { "lon": 121.52536, "address": "臺北市中正區濟南路一段321號", "name": "臺北商業大學承羲9F女", "type": "廁所", "lat": 25.041961 }, { "lon": 121.52536, "address": "臺北市中正區濟南路一段321號", "name": "臺北商業大學承羲9F男", "type": "廁所", "lat": 25.041961 }, { "lon": 121.52536, "address": "臺北市中正區濟南路一段321號", "name": "臺北商業大學承羲B1女", "type": "廁所", "lat": 25.041961 }, { "lon": 121.52536, "address": "臺北市中正區濟南路一段321號", "name": "臺北商業大學承羲B1男", "type": "廁所", "lat": 25.041961 }, { "lon": 121.52536, "address": "臺北市中正區濟南路一段321號", "name": "臺北商業大學活動中心1女", "type": "廁所", "lat": 25.041961 }, { "lon": 121.52536, "address": "臺北市中正區濟南路一段321號", "name": "臺北商業大學活動中心1男", "type": "廁所", "lat": 25.041961 }, { "lon": 121.52536, "address": "臺北市中正區濟南路一段321號", "name": "臺北商業大學活動中心2女", "type": "廁所", "lat": 25.041961 }, { "lon": 121.52536, "address": "臺北市中正區濟南路一段321號", "name": "臺北商業大學活動中心2男", "type": "廁所", "lat": 25.041961 }, { "lon": 121.52536, "address": "臺北市中正區濟南路一段321號", "name": "臺北商業大學紀念堂1F女", "type": "廁所", "lat": 25.041961 }, { "lon": 121.52536, "address": "臺北市中正區濟南路一段321號", "name": "臺北商業大學紀念堂1F男", "type": "廁所", "lat": 25.041961 }, { "lon": 121.52536, "address": "臺北市中正區濟南路一段321號", "name": "臺北商業大學紀念堂2F女", "type": "廁所", "lat": 25.041961 }, { "lon": 121.52536, "address": "臺北市中正區濟南路一段321號", "name": "臺北商業大學紀念堂2F男", "type": "廁所", "lat": 25.041961 }, { "lon": 121.52536, "address": "臺北市中正區濟南路一段321號", "name": "臺北商業大學紀念堂3F女", "type": "廁所", "lat": 25.041961 }, { "lon": 121.52536, "address": "臺北市中正區濟南路一段321號", "name": "臺北商業大學紀念堂3F男", "type": "廁所", "lat": 25.041961 }, { "lon": 121.52536, "address": "臺北市中正區濟南路一段321號", "name": "臺北商業大學紀念堂4F女", "type": "廁所", "lat": 25.041961 }, { "lon": 121.52536, "address": "臺北市中正區濟南路一段321號", "name": "臺北商業大學紀念堂4F男", "type": "廁所", "lat": 25.041961 }, { "lon": 121.52536, "address": "臺北市中正區濟南路一段321號", "name": "臺北商業大學紀念堂5F女", "type": "廁所", "lat": 25.041961 }, { "lon": 121.52536, "address": "臺北市中正區濟南路一段321號", "name": "臺北商業大學紀念堂5F男", "type": "廁所", "lat": 25.041961 }, { "lon": 121.52536, "address": "臺北市中正區濟南路一段321號", "name": "臺北商業大學紀念堂6F女", "type": "廁所", "lat": 25.041961 }, { "lon": 121.52536, "address": "臺北市中正區濟南路一段321號", "name": "臺北商業大學紀念堂6F男", "type": "廁所", "lat": 25.041961 }, { "lon": 121.52536, "address": "臺北市中正區濟南路一段321號", "name": "臺北商業大學紀念堂7F女", "type": "廁所", "lat": 25.041961 }, { "lon": 121.52536, "address": "臺北市中正區濟南路一段321號", "name": "臺北商業大學紀念堂7F男", "type": "廁所", "lat": 25.041961 }, { "lon": 121.52536, "address": "臺北市中正區濟南路一段321號", "name": "臺北商業大學行政1F女", "type": "廁所", "lat": 25.041961 }, { "lon": 121.52536, "address": "臺北市中正區濟南路一段321號", "name": "臺北商業大學行政1F男", "type": "廁所", "lat": 25.041961 }, { "lon": 121.52536, "address": "臺北市中正區濟南路一段321號", "name": "臺北商業大學行政2F女", "type": "廁所", "lat": 25.041961 }, { "lon": 121.52536, "address": "臺北市中正區濟南路一段321號", "name": "臺北商業大學行政2F男", "type": "廁所", "lat": 25.041961 }, { "lon": 121.52536, "address": "臺北市中正區濟南路一段321號", "name": "臺北商業大學行政3F女", "type": "廁所", "lat": 25.041961 }, { "lon": 121.52536, "address": "臺北市中正區濟南路一段321號", "name": "臺北商業大學行政3F男", "type": "廁所", "lat": 25.041961 }, { "lon": 121.52536, "address": "臺北市中正區濟南路一段321號", "name": "臺北商業大學行政4F女", "type": "廁所", "lat": 25.041961 }, { "lon": 121.52536, "address": "臺北市中正區濟南路一段321號", "name": "臺北商業大學行政4F男", "type": "廁所", "lat": 25.041961 }, { "lon": 121.52536, "address": "臺北市中正區濟南路一段321號", "name": "臺北商業大學行政5F女", "type": "廁所", "lat": 25.041961 }, { "lon": 121.52536, "address": "臺北市中正區濟南路一段321號", "name": "臺北商業大學行政5F男", "type": "廁所", "lat": 25.041961 }, { "lon": 121.52536, "address": "臺北市中正區濟南路一段321號", "name": "臺北商業大學行政6F女", "type": "廁所", "lat": 25.041961 }, { "lon": 121.52536, "address": "臺北市中正區濟南路一段321號", "name": "臺北商業大學行政6F男", "type": "廁所", "lat": 25.041961 }, { "lon": 121.52536, "address": "臺北市中正區濟南路一段321號", "name": "臺北商業大學行政7F女", "type": "廁所", "lat": 25.041961 }, { "lon": 121.52536, "address": "臺北市中正區濟南路一段321號", "name": "臺北商業大學行政7F男", "type": "廁所", "lat": 25.041961 }, { "lon": 121.52536, "address": "臺北市中正區濟南路一段321號", "name": "臺北商業大學行政8F女", "type": "廁所", "lat": 25.041961 }, { "lon": 121.52536, "address": "臺北市中正區濟南路一段321號", "name": "臺北商業大學行政8F男", "type": "廁所", "lat": 25.041961 }, { "lon": 121.523342, "address": "臺北市中正區北平東路7之2號", "name": "臺北市稅捐稽徵處東1F男", "type": "廁所", "lat": 25.046631 }, { "lon": 121.523342, "address": "臺北市中正區北平東路7之2號", "name": "臺北市稅捐稽徵處東1F親子", "type": "廁所", "lat": 25.046631 }, { "lon": 121.523342, "address": "臺北市中正區北平東路7之2號", "name": "臺北市稅捐稽徵處東3F男", "type": "廁所", "lat": 25.046631 }, { "lon": 121.523342, "address": "臺北市中正區北平東路7之2號", "name": "臺北市稅捐稽徵處東4F女", "type": "廁所", "lat": 25.046631 }, { "lon": 121.523342, "address": "臺北市中正區北平東路7之2號", "name": "臺北市稅捐稽徵處東4F男", "type": "廁所", "lat": 25.046631 }, { "lon": 121.523342, "address": "臺北市中正區北平東路7之2號", "name": "臺北市稅捐稽徵處東5F女", "type": "廁所", "lat": 25.046631 }, { "lon": 121.523342, "address": "臺北市中正區北平東路7之2號", "name": "臺北市稅捐稽徵處東5F男", "type": "廁所", "lat": 25.046631 }, { "lon": 121.523342, "address": "臺北市中正區北平東路7之2號", "name": "臺北市稅捐稽徵處西1F女", "type": "廁所", "lat": 25.046631 }, { "lon": 121.523342, "address": "臺北市中正區北平東路7之2號", "name": "臺北市稅捐稽徵處西2F女", "type": "廁所", "lat": 25.046631 }, { "lon": 121.523342, "address": "臺北市中正區北平東路7之2號", "name": "臺北市稅捐稽徵處西2F男", "type": "廁所", "lat": 25.046631 }, { "lon": 121.523342, "address": "臺北市中正區北平東路7之2號", "name": "臺北市稅捐稽徵處西3F女", "type": "廁所", "lat": 25.046631 }, { "lon": 121.523342, "address": "臺北市中正區北平東路7之2號", "name": "臺北市稅捐稽徵處西4F女", "type": "廁所", "lat": 25.046631 }, { "lon": 121.538369, "address": "臺北市大安區建國南路二段125號", "name": "臺北市立圖書館2F無障礙", "type": "廁所", "lat": 25.029152 }, { "lon": 121.530902, "address": "臺北市中正區濟南路二段46號3樓", "name": "臺北市立圖書館城中分館女", "type": "廁所", "lat": 25.040316 }, { "lon": 121.530902, "address": "臺北市中正區濟南路二段46號3樓", "name": "臺北市立圖書館城中分館無障礙", "type": "廁所", "lat": 25.040316 }, { "lon": 121.530902, "address": "臺北市中正區濟南路二段46號3樓", "name": "臺北市立圖書館城中分館男", "type": "廁所", "lat": 25.040316 }, { "lon": 121.538369, "address": "臺北市大安區建國南路二段125號", "name": "臺北市立圖書館總館1F女", "type": "廁所", "lat": 25.029152 }, { "lon": 121.538369, "address": "臺北市大安區建國南路二段125號", "name": "臺北市立圖書館總館1F無障礙", "type": "廁所", "lat": 25.029152 }, { "lon": 121.538369, "address": "臺北市大安區建國南路二段125號", "name": "臺北市立圖書館總館1F男", "type": "廁所", "lat": 25.029152 }, { "lon": 121.538369, "address": "臺北市大安區建國南路二段125號", "name": "臺北市立圖書館總館2F女", "type": "廁所", "lat": 25.029152 }, { "lon": 121.538369, "address": "臺北市大安區建國南路二段125號", "name": "臺北市立圖書館總館2F男", "type": "廁所", "lat": 25.029152 }, { "lon": 121.538369, "address": "臺北市大安區建國南路二段125號", "name": "臺北市立圖書館總館3F女", "type": "廁所", "lat": 25.029152 }, { "lon": 121.538369, "address": "臺北市大安區建國南路二段125號", "name": "臺北市立圖書館總館3F無障礙", "type": "廁所", "lat": 25.029152 }, { "lon": 121.538369, "address": "臺北市大安區建國南路二段125號", "name": "臺北市立圖書館總館3F男", "type": "廁所", "lat": 25.029152 }, { "lon": 121.538369, "address": "臺北市大安區建國南路二段125號", "name": "臺北市立圖書館總館4F女", "type": "廁所", "lat": 25.029152 }, { "lon": 121.538369, "address": "臺北市大安區建國南路二段125號", "name": "臺北市立圖書館總館4F無障礙", "type": "廁所", "lat": 25.029152 }, { "lon": 121.538369, "address": "臺北市大安區建國南路二段125號", "name": "臺北市立圖書館總館4F男", "type": "廁所", "lat": 25.029152 }, { "lon": 121.538369, "address": "臺北市大安區建國南路二段125號", "name": "臺北市立圖書館總館5F女", "type": "廁所", "lat": 25.029152 }, { "lon": 121.538369, "address": "臺北市大安區建國南路二段125號", "name": "臺北市立圖書館總館5F無障礙", "type": "廁所", "lat": 25.029152 }, { "lon": 121.538369, "address": "臺北市大安區建國南路二段125號", "name": "臺北市立圖書館總館5F男", "type": "廁所", "lat": 25.029152 }, { "lon": 121.538369, "address": "臺北市大安區建國南路二段125號", "name": "臺北市立圖書館總館6F女", "type": "廁所", "lat": 25.029152 }, { "lon": 121.538369, "address": "臺北市大安區建國南路二段125號", "name": "臺北市立圖書館總館6F無障礙", "type": "廁所", "lat": 25.029152 }, { "lon": 121.538369, "address": "臺北市大安區建國南路二段125號", "name": "臺北市立圖書館總館6F男", "type": "廁所", "lat": 25.029152 }, { "lon": 121.538369, "address": "臺北市大安區建國南路二段125號", "name": "臺北市立圖書館總館7F女", "type": "廁所", "lat": 25.029152 }, { "lon": 121.538369, "address": "臺北市大安區建國南路二段125號", "name": "臺北市立圖書館總館7F男", "type": "廁所", "lat": 25.029152 }, { "lon": 121.538369, "address": "臺北市大安區建國南路二段125號", "name": "臺北市立圖書館總館8F女", "type": "廁所", "lat": 25.029152 }, { "lon": 121.538369, "address": "臺北市大安區建國南路二段125號", "name": "臺北市立圖書館總館8F無障礙", "type": "廁所", "lat": 25.029152 }, { "lon": 121.538369, "address": "臺北市大安區建國南路二段125號", "name": "臺北市立圖書館總館8F男", "type": "廁所", "lat": 25.029152 }, { "lon": 121.538369, "address": "臺北市大安區建國南路二段125號", "name": "臺北市立圖書館總館B1女", "type": "廁所", "lat": 25.029152 }, { "lon": 121.538369, "address": "臺北市大安區建國南路二段125號", "name": "臺北市立圖書館總館B1無障礙", "type": "廁所", "lat": 25.029152 }, { "lon": 121.538369, "address": "臺北市大安區建國南路二段125號", "name": "臺北市立圖書館總館B1男", "type": "廁所", "lat": 25.029152 }, { "lon": 121.538369, "address": "臺北市大安區建國南路二段125號", "name": "臺北市立圖書館總館B2女", "type": "廁所", "lat": 25.029152 }, { "lon": 121.538369, "address": "臺北市大安區建國南路二段125號", "name": "臺北市立圖書館總館B2無障礙", "type": "廁所", "lat": 25.029152 }, { "lon": 121.538369, "address": "臺北市大安區建國南路二段125號", "name": "臺北市立圖書館總館B2男", "type": "廁所", "lat": 25.029152 }, { "lon": 121.538369, "address": "臺北市大安區建國南路二段125號", "name": "臺北市立圖書館總館裝訂室旁女", "type": "廁所", "lat": 25.029152 }, { "lon": 121.529646, "address": "臺北市大安區永康街60號2.3F", "name": "臺北市立圖書館龍安民眾閱覽室2F女", "type": "廁所", "lat": 25.029034 }, { "lon": 121.529646, "address": "臺北市大安區永康街60號2.3F", "name": "臺北市立圖書館龍安民眾閱覽室2F無障礙", "type": "廁所", "lat": 25.029034 }, { "lon": 121.529646, "address": "臺北市大安區永康街60號2.3F", "name": "臺北市立圖書館龍安民眾閱覽室2F男", "type": "廁所", "lat": 25.029034 }, { "lon": 121.529646, "address": "臺北市大安區永康街60號2.3F", "name": "臺北市立圖書館龍安民眾閱覽室3F女", "type": "廁所", "lat": 25.029034 }, { "lon": 121.529646, "address": "臺北市大安區永康街60號2.3F", "name": "臺北市立圖書館龍安民眾閱覽室3F男", "type": "廁所", "lat": 25.029034 }, { "lon": 121.535264, "address": "臺北市大安區忠孝東路三段1號", "name": "臺北科技大學共同1樓女", "type": "廁所", "lat": 25.042157 }, { "lon": 121.535264, "address": "臺北市大安區忠孝東路三段1號", "name": "臺北科技大學共同1樓男", "type": "廁所", "lat": 25.042157 }, { "lon": 121.535264, "address": "臺北市大安區忠孝東路三段1號", "name": "臺北科技大學共同2樓女", "type": "廁所", "lat": 25.042157 }, { "lon": 121.535264, "address": "臺北市大安區忠孝東路三段1號", "name": "臺北科技大學共同2樓男", "type": "廁所", "lat": 25.042157 }, { "lon": 121.535264, "address": "臺北市大安區忠孝東路三段1號", "name": "臺北科技大學共同3樓女", "type": "廁所", "lat": 25.042157 }, { "lon": 121.535264, "address": "臺北市大安區忠孝東路三段1號", "name": "臺北科技大學共同3樓男", "type": "廁所", "lat": 25.042157 }, { "lon": 121.535264, "address": "臺北市大安區忠孝東路三段1號", "name": "臺北科技大學共同4樓女", "type": "廁所", "lat": 25.042157 }, { "lon": 121.535264, "address": "臺北市大安區忠孝東路三段1號", "name": "臺北科技大學共同4樓男", "type": "廁所", "lat": 25.042157 }, { "lon": 121.535264, "address": "臺北市大安區忠孝東路三段1號", "name": "臺北科技大學共同5樓女", "type": "廁所", "lat": 25.042157 }, { "lon": 121.535264, "address": "臺北市大安區忠孝東路三段1號", "name": "臺北科技大學共同5樓男", "type": "廁所", "lat": 25.042157 }, { "lon": 121.535264, "address": "臺北市大安區忠孝東路三段1號", "name": "臺北科技大學共同6樓女", "type": "廁所", "lat": 25.042157 }, { "lon": 121.535264, "address": "臺北市大安區忠孝東路三段1號", "name": "臺北科技大學共同6樓男", "type": "廁所", "lat": 25.042157 }, { "lon": 121.535264, "address": "臺北市大安區忠孝東路三段1號", "name": "臺北科技大學國父紀念館1樓女廁", "type": "廁所", "lat": 25.042157 }, { "lon": 121.535264, "address": "臺北市大安區忠孝東路三段1號", "name": "臺北科技大學國父紀念館2樓女廁", "type": "廁所", "lat": 25.042157 }, { "lon": 121.535264, "address": "臺北市大安區忠孝東路三段1號", "name": "臺北科技大學國父紀念館2樓男", "type": "廁所", "lat": 25.042157 }, { "lon": 121.535264, "address": "臺北市大安區忠孝東路三段1號", "name": "臺北科技大學國父紀念館4樓女廁", "type": "廁所", "lat": 25.042157 }, { "lon": 121.535264, "address": "臺北市大安區忠孝東路三段1號", "name": "臺北科技大學國父紀念館4樓男", "type": "廁所", "lat": 25.042157 }, { "lon": 121.535264, "address": "臺北市大安區忠孝東路三段1號", "name": "臺北科技大學國父紀紀館1樓男", "type": "廁所", "lat": 25.042157 }, { "lon": 121.535264, "address": "臺北市大安區忠孝東路三段1號", "name": "臺北科技大學宏裕大樓10樓", "type": "廁所", "lat": 25.042157 }, { "lon": 121.535264, "address": "臺北市大安區忠孝東路三段1號", "name": "臺北科技大學宏裕大樓11樓", "type": "廁所", "lat": 25.042157 }, { "lon": 121.535264, "address": "臺北市大安區忠孝東路三段1號", "name": "臺北科技大學宏裕大樓12樓", "type": "廁所", "lat": 25.042157 }, { "lon": 121.535264, "address": "臺北市大安區忠孝東路三段1號", "name": "臺北科技大學宏裕大樓13樓", "type": "廁所", "lat": 25.042157 }, { "lon": 121.535264, "address": "臺北市大安區忠孝東路三段1號", "name": "臺北科技大學宏裕大樓14樓", "type": "廁所", "lat": 25.042157 }, { "lon": 121.535264, "address": "臺北市大安區忠孝東路三段1號", "name": "臺北科技大學宏裕大樓15樓", "type": "廁所", "lat": 25.042157 }, { "lon": 121.535264, "address": "臺北市大安區忠孝東路三段1號", "name": "臺北科技大學宏裕大樓16樓", "type": "廁所", "lat": 25.042157 }, { "lon": 121.535264, "address": "臺北市大安區忠孝東路三段1號", "name": "臺北科技大學宏裕大樓1樓", "type": "廁所", "lat": 25.042157 }, { "lon": 121.535264, "address": "臺北市大安區忠孝東路三段1號", "name": "臺北科技大學宏裕大樓2樓", "type": "廁所", "lat": 25.042157 }, { "lon": 121.535264, "address": "臺北市大安區忠孝東路三段1號", "name": "臺北科技大學宏裕大樓3樓", "type": "廁所", "lat": 25.042157 }, { "lon": 121.535264, "address": "臺北市大安區忠孝東路三段1號", "name": "臺北科技大學宏裕大樓4樓", "type": "廁所", "lat": 25.042157 }, { "lon": 121.535264, "address": "臺北市大安區忠孝東路三段1號", "name": "臺北科技大學宏裕大樓5樓", "type": "廁所", "lat": 25.042157 }, { "lon": 121.535264, "address": "臺北市大安區忠孝東路三段1號", "name": "臺北科技大學宏裕大樓6樓", "type": "廁所", "lat": 25.042157 }, { "lon": 121.535264, "address": "臺北市大安區忠孝東路三段1號", "name": "臺北科技大學宏裕大樓7樓", "type": "廁所", "lat": 25.042157 }, { "lon": 121.535264, "address": "臺北市大安區忠孝東路三段1號", "name": "臺北科技大學宏裕大樓8樓", "type": "廁所", "lat": 25.042157 }, { "lon": 121.535264, "address": "臺北市大安區忠孝東路三段1號", "name": "臺北科技大學宏裕大樓9樓", "type": "廁所", "lat": 25.042157 }, { "lon": 121.535264, "address": "臺北市大安區忠孝東路三段1號", "name": "臺北科技大學第2教學大樓1樓", "type": "廁所", "lat": 25.042157 }, { "lon": 121.535264, "address": "臺北市大安區忠孝東路三段1號", "name": "臺北科技大學第2教學大樓2樓", "type": "廁所", "lat": 25.042157 }, { "lon": 121.535264, "address": "臺北市大安區忠孝東路三段1號", "name": "臺北科技大學第2教學大樓3樓", "type": "廁所", "lat": 25.042157 }, { "lon": 121.535264, "address": "臺北市大安區忠孝東路三段1號", "name": "臺北科技大學第3教學大樓1樓", "type": "廁所", "lat": 25.042157 }, { "lon": 121.535264, "address": "臺北市大安區忠孝東路三段1號", "name": "臺北科技大學第3教學大樓2樓女廁", "type": "廁所", "lat": 25.042157 }, { "lon": 121.535264, "address": "臺北市大安區忠孝東路三段1號", "name": "臺北科技大學第3教學大樓2樓男廁", "type": "廁所", "lat": 25.042157 }, { "lon": 121.535264, "address": "臺北市大安區忠孝東路三段1號", "name": "臺北科技大學第3教學大樓3樓男廁", "type": "廁所", "lat": 25.042157 }, { "lon": 121.535264, "address": "臺北市大安區忠孝東路三段1號", "name": "臺北科技大學第3教學大樓4樓女廁", "type": "廁所", "lat": 25.042157 }, { "lon": 121.535264, "address": "臺北市大安區忠孝東路三段1號", "name": "臺北科技大學第3教學大樓5樓女廁", "type": "廁所", "lat": 25.042157 }, { "lon": 121.535264, "address": "臺北市大安區忠孝東路三段1號", "name": "臺北科技大學第六教學大樓2樓", "type": "廁所", "lat": 25.042157 }, { "lon": 121.535264, "address": "臺北市大安區忠孝東路三段1號", "name": "臺北科技大學第六教學大樓3樓", "type": "廁所", "lat": 25.042157 }, { "lon": 121.535264, "address": "臺北市大安區忠孝東路三段1號", "name": "臺北科技大學第六教學大樓4樓", "type": "廁所", "lat": 25.042157 }, { "lon": 121.535264, "address": "臺北市大安區忠孝東路三段1號", "name": "臺北科技大學第六教學大樓5樓", "type": "廁所", "lat": 25.042157 }, { "lon": 121.535264, "address": "臺北市大安區忠孝東路三段1號", "name": "臺北科技大學第六教學大樓6樓", "type": "廁所", "lat": 25.042157 }, { "lon": 121.535264, "address": "臺北市大安區忠孝東路三段1號", "name": "臺北科技大學第六教學大樓7樓", "type": "廁所", "lat": 25.042157 }, { "lon": 121.535264, "address": "臺北市大安區忠孝東路三段1號", "name": "臺北科技大學綜合北區1樓女", "type": "廁所", "lat": 25.042157 }, { "lon": 121.535264, "address": "臺北市大安區忠孝東路三段1號", "name": "臺北科技大學綜合北區1樓男", "type": "廁所", "lat": 25.042157 }, { "lon": 121.535264, "address": "臺北市大安區忠孝東路三段1號", "name": "臺北科技大學綜合北區2樓女", "type": "廁所", "lat": 25.042157 }, { "lon": 121.535264, "address": "臺北市大安區忠孝東路三段1號", "name": "臺北科技大學綜合北區2樓男", "type": "廁所", "lat": 25.042157 }, { "lon": 121.535264, "address": "臺北市大安區忠孝東路三段1號", "name": "臺北科技大學綜合北區3樓女", "type": "廁所", "lat": 25.042157 }, { "lon": 121.535264, "address": "臺北市大安區忠孝東路三段1號", "name": "臺北科技大學綜合北區3樓男", "type": "廁所", "lat": 25.042157 }, { "lon": 121.535264, "address": "臺北市大安區忠孝東路三段1號", "name": "臺北科技大學綜合北區4樓女", "type": "廁所", "lat": 25.042157 }, { "lon": 121.535264, "address": "臺北市大安區忠孝東路三段1號", "name": "臺北科技大學綜合北區4樓男", "type": "廁所", "lat": 25.042157 }, { "lon": 121.535264, "address": "臺北市大安區忠孝東路三段1號", "name": "臺北科技大學綜合北區5樓女", "type": "廁所", "lat": 25.042157 }, { "lon": 121.535264, "address": "臺北市大安區忠孝東路三段1號", "name": "臺北科技大學綜合北區5樓男", "type": "廁所", "lat": 25.042157 }, { "lon": 121.535264, "address": "臺北市大安區忠孝東路三段1號", "name": "臺北科技大學綜合北區6樓女", "type": "廁所", "lat": 25.042157 }, { "lon": 121.535264, "address": "臺北市大安區忠孝東路三段1號", "name": "臺北科技大學綜合北區6樓男", "type": "廁所", "lat": 25.042157 }, { "lon": 121.535264, "address": "臺北市大安區忠孝東路三段1號", "name": "臺北科技大學綜合北區7樓女", "type": "廁所", "lat": 25.042157 }, { "lon": 121.535264, "address": "臺北市大安區忠孝東路三段1號", "name": "臺北科技大學綜合北區7樓男", "type": "廁所", "lat": 25.042157 }, { "lon": 121.535264, "address": "臺北市大安區忠孝東路三段1號", "name": "臺北科技大學綜合北區8樓女", "type": "廁所", "lat": 25.042157 }, { "lon": 121.535264, "address": "臺北市大安區忠孝東路三段1號", "name": "臺北科技大學綜合大樓南區1樓女", "type": "廁所", "lat": 25.042157 }, { "lon": 121.535264, "address": "臺北市大安區忠孝東路三段1號", "name": "臺北科技大學綜合大樓南區1樓男", "type": "廁所", "lat": 25.042157 }, { "lon": 121.535264, "address": "臺北市大安區忠孝東路三段1號", "name": "臺北科技大學綜合大樓南區2樓女", "type": "廁所", "lat": 25.042157 }, { "lon": 121.535264, "address": "臺北市大安區忠孝東路三段1號", "name": "臺北科技大學綜合大樓南區2樓男", "type": "廁所", "lat": 25.042157 }, { "lon": 121.535264, "address": "臺北市大安區忠孝東路三段1號", "name": "臺北科技大學綜合大樓南區3樓女", "type": "廁所", "lat": 25.042157 }, { "lon": 121.535264, "address": "臺北市大安區忠孝東路三段1號", "name": "臺北科技大學綜合大樓南區3樓男", "type": "廁所", "lat": 25.042157 }, { "lon": 121.535264, "address": "臺北市大安區忠孝東路三段1號", "name": "臺北科技大學綜合大樓南區4樓女", "type": "廁所", "lat": 25.042157 }, { "lon": 121.535264, "address": "臺北市大安區忠孝東路三段1號", "name": "臺北科技大學綜合大樓南區4樓男", "type": "廁所", "lat": 25.042157 }, { "lon": 121.535264, "address": "臺北市大安區忠孝東路三段1號", "name": "臺北科技大學綜合大樓南區5樓女", "type": "廁所", "lat": 25.042157 }, { "lon": 121.535264, "address": "臺北市大安區忠孝東路三段1號", "name": "臺北科技大學綜合大樓南區5樓男", "type": "廁所", "lat": 25.042157 }, { "lon": 121.535264, "address": "臺北市大安區忠孝東路三段1號", "name": "臺北科技大學綜合大樓南區6樓女", "type": "廁所", "lat": 25.042157 }, { "lon": 121.535264, "address": "臺北市大安區忠孝東路三段1號", "name": "臺北科技大學綜合大樓南區6樓男", "type": "廁所", "lat": 25.042157 }, { "lon": 121.535264, "address": "臺北市大安區忠孝東路三段1號", "name": "臺北科技大學綜合大樓南區7樓女", "type": "廁所", "lat": 25.042157 }, { "lon": 121.535264, "address": "臺北市大安區忠孝東路三段1號", "name": "臺北科技大學綜合大樓南區7樓男", "type": "廁所", "lat": 25.042157 }, { "lon": 121.535264, "address": "臺北市大安區忠孝東路三段1號", "name": "臺北科技大學綜合大樓南區8樓女", "type": "廁所", "lat": 25.042157 }, { "lon": 121.535264, "address": "臺北市大安區忠孝東路三段1號", "name": "臺北科技大學綜合大樓南區8樓男", "type": "廁所", "lat": 25.042157 }, { "lon": 121.535264, "address": "臺北市大安區忠孝東路三段1號", "name": "臺北科技大學行政1F男女", "type": "廁所", "lat": 25.042157 }, { "lon": 121.535264, "address": "臺北市大安區忠孝東路三段1號", "name": "臺北科技大學行政6F男女", "type": "廁所", "lat": 25.042157 }, { "lon": 121.535264, "address": "臺北市大安區忠孝東路三段1號", "name": "臺北科技大學行政7F女", "type": "廁所", "lat": 25.042157 }, { "lon": 121.535264, "address": "臺北市大安區忠孝東路三段1號", "name": "臺北科技大學行政7F男", "type": "廁所", "lat": 25.042157 }, { "lon": 121.52906, "address": "臺北市中正區八德路一段1號", "name": "華山創意園區(華山藝文廣場)中三1F女", "type": "廁所", "lat": 25.043604 }, { "lon": 121.52906, "address": "臺北市中正區八德路一段1號", "name": "華山創意園區(華山藝文廣場)中三1F男", "type": "廁所", "lat": 25.043604 }, { "lon": 121.52906, "address": "臺北市中正區八德路一段1號", "name": "華山創意園區(華山藝文廣場)中二2F女", "type": "廁所", "lat": 25.043604 }, { "lon": 121.52906, "address": "臺北市中正區八德路一段1號", "name": "華山創意園區(華山藝文廣場)中二2F男", "type": "廁所", "lat": 25.043604 }, { "lon": 121.52906, "address": "臺北市中正區八德路一段1號", "name": "華山創意園區(華山藝文廣場)東一女", "type": "廁所", "lat": 25.043604 }, { "lon": 121.52906, "address": "臺北市中正區八德路一段1號", "name": "華山創意園區(華山藝文廣場)東一男", "type": "廁所", "lat": 25.043604 }, { "lon": 121.525558, "address": "臺北市中正區梅花里忠孝東路一段35號一樓", "name": "萊爾富便利商店臺北市正忠店男女", "type": "廁所", "lat": 25.044509 }, { "lon": 121.531708, "address": "臺北市大安區金華街254巷1號地下", "name": "金華公園地下停車場男女", "type": "廁所", "lat": 25.029071 }, { "lon": 121.541984, "address": "臺北市大安區復興南路一段340巷11號地下", "name": "附中公園地下停車場男女", "type": "廁所", "lat": 25.036111 }, { "lon": 121.539516, "address": "臺北市大安區建國南路一段57之1號", "name": "陽光加油站男女", "type": "廁所", "lat": 25.04727 }, { "lon": 121.53254, "address": "臺北市中正區濟南路二段66號1樓", "name": "麥當勞台北濟南店女", "type": "廁所", "lat": 25.040084 }, { "lon": 121.53254, "address": "臺北市中正區濟南路二段66號1樓", "name": "麥當勞台北濟南店男", "type": "廁所", "lat": 25.040084 }, { "lon": 121.523382, "address": "臺北市中正區林森南路1號", "name": "麥當勞林森二店男女", "type": "廁所", "lat": 25.044419 }] }
